stop_id,stop_code,stop_name,stop_desc,stop_lat,stop_lon,zone_id,stop_url,location_type,parent_station,stop_timezone,wheelchair_boarding
1,MeriMall,Meridian Mall,MERIDIAN MALL LOT,42.724535,-84.420488,,,,,,0
4,FrandorW,WBD Frandor Center,FRANDOR ACCESS RD & FRANDOR CENTER,42.737159,-84.506217,,,,,,0
7,CTC,CATA Trans Center,S GRAND AVE & E LENAWEE ST,42.729345,-84.551054,,,,,,0
9,FrandorE,EBD Frandor Center,FRANDOR ACCESS RD & FRANDOR CENTER,42.737104,-84.506271,,,,,,0
15,BurnWavE,EBD Burneway before Waverly,BURNEWAY DR,42.686563,-84.603807,,,,,,0
22,LansMall,Lansing Mall,NEW MALL DR,42.743502,-84.625819,,,,,,0
23,SagiWavE,EBD Saginaw past Waverly,W SAGINAW ST & W THOMAS L PKWY,42.740936,-84.601284,,,,,,0
33,DavlAurW,WBD Davlind before Aurelius,DAVLIND DR & AURELIUS RD,42.627017,-84.522224,,,,,,0
36,CedJollN,NBD Cedar before Jolly,S CEDAR ST,42.681355,-84.547934,,,,,,0
41,HoltAurW,WBD Holt past Aurelius,W HOLT RD & AURELIUS RD,42.64026,-84.52392,,,,,,0
42,WindMill,WindMill Mobile Park,WINDMILL BLVD & REMBRANT RD,42.624049,-84.547137,,,,,,0
48,BJTrCoW1,EBD BeauJardin past Dunckel,BEAU JARDIN DR,42.684479,-84.51287,,,,,,0
53,PennMtHS,SBD Penn past Mt Hope,S PENNSYLVANIA AVE & MCKIM AVE,42.71157,-84.53821,,,,,,0
54,PennMtHN,NBD Penn past Mt Hope,S PENNSYLVANIA AVE & E MOUNT HOPE AVE,42.71228,-84.53803,,,,,,0
67,WavStJoE,EBD St Joseph before Waverly (store),VALUE CITY LOT,42.726212,-84.60488,,,,,,0
79,TurnNorS,SBD Turner past North,TURNER ST & E NORTH ST,42.751304,-84.549627,,,,,,0
80,NorTurnW,WBD North past Turner,E NORTH ST & TURNER ST,42.751697,-84.549983,,,,,,0
81,DeRGRivW,WBD Delta River past N Grand Riv.,DELTA RIVER DR & N GRAND RIVER AVE,42.763338,-84.580342,,,,,,0
82,CaCiAir4,Capital Regional Airport Auth. Term,W CIRCLE DR & E CIRCLE DR,42.774685,-84.589509,,,,,,0
87,ShawFarm,WBD Shaw before Farm Lane,N SHAW LN & FARM LN,42.726086,-84.477236,,,,,,0
96,HasHagE,EBD Haslett past Hagadorn,HASLETT RD & GREENCREST AVE,42.746849,-84.461769,,,,,,0
118,MainGRiv,NBD Main before Grand River,MAIN ST S & CHESTNUT ST E,42.666473,-84.174003,,,,,,0
133,MasMeij,Mason Meijer,MASON MEIJER LOT & E CHERRY ST,42.565736,-84.44326,,,,,,0
159,CATAOffi,CATA Offices,TRANTER ST & CATA HEADQUARTERS,42.688034,-84.534484,,,,,,0
160,CoMenHE,Community Mental Health,MENTAL HEALTH LOT & S CEDAR ST,42.681801,-84.541191,,,,,,0
161,FIA,Family Ind. Agency,UNNAMED ST & S CEDAR ST,42.681346,-84.545672,,,,,,0
168,HarMichS,SBD Harrison before Michigan,117 N HARRISON RD & ELM ST,42.734189,-84.49361,,,,,,0
169,HarMichN,NBD Harrison past Michigan,N HARRISON RD & S HARRISON RD,42.73452,-84.493449,,,,,,0
177,BrodComp,Brody Complex,S HARRISON RD & BRODY RD S,42.731747,-84.494031,,,,,,0
191,UnivVil2,University Village,UNIVERSITY VLG & UNIVERSITY VILLAGE ENTRANCE,42.727464,-84.498459,,,,,,0
195,MtHoHagE,EBD Mt Hope past Hagadorn,E MOUNT HOPE RD & JANICE LEE DR,42.711742,-84.458975,,,,,,0
978,SagMLKE,EBD Saginaw past MLK,W SAGINAW ST & N MARTIN LUTHER KING JR BLVD,42.740901,-84.566539,,,,,,0
1144,AbbSagiN,NBD Abbot past Saginaw,1400 ABBOT RD & E SAGINAW ST,42.747881,-84.483637,,,,,,0
1596,GranHilN,NBD Grand past Hillsdale,S GRAND AVE & E HILLSDALE ST,42.727501,-84.550638,,,,,,0
1599,GranAllN,NBD Grand Ave before E Allegan St,S GRAND AVE & E WASHTENAW ST,42.732092,-84.550598,,,,,,0
1600,GranMicN,NBD Grand Ave past E Michigan Ave,N GRAND AVE & E MICHIGAN AVE,42.734257,-84.55056,,,,,,0
1601,GranSh1N,NBD Grand before Shiawassee St,N GRAND AVE & E IONIA ST,42.736906,-84.550546,,,,,,0
1603,GranSh2N,NBD Grand past Shiawassee St,N GRAND AVE & Shiawassee,42.737649,-84.550533,,,,,,0
1604,GranSagN,NBD Grand past Saginaw St,N GRAND AVE,42.741344,-84.550518,,,,,,0
1609,CapiSagS,SBD Capitol past Saginaw St,N CAPITOL AVE & W LAPEER ST,42.740406,-84.553885,,,,,,0
1610,CapiGenS,SBD Capitol past Genessee St,N CAPITOL AVE & W SHIAWASSEE ST,42.738375,-84.553898,,,,,,0
1614,CapiKalS,SBD Capitol past Kalamazoo St,S CAPITOL AVE & W LENAWEE ST,42.729829,-84.55399,,,,,,0
1615,CapiHilS,SBD Capitol past Hillsdale,S CAPITOL AVE & W SAINT JOSEPH ST,42.727243,-84.554003,,,,,,0
1618,WalnShiN,NBD Walnut past Shiawassee St,N WALNUT ST & W GENESEE ST,42.73745,-84.55689,,,,,,0
1619,PineGenS,SBD Pine past Genessee St,N PINE ST & Genesee,42.738403,-84.560041,,,,,,0
1622,PineOttS,SBD Pine St past Ottawa,N PINE ST & W OTTAWA ST,42.734439,-84.560129,,,,,,0
1624,ShiaCedE,EBD Shiawassee past Cedar St,E SHIAWASSEE ST & N CEDAR ST,42.737182,-84.545889,,,,,,0
1625,ShiaWaSW,WBD Shiawassee St at Washington Ave,E SHIAWASSEE ST & N GRAND AVE,42.737336,-84.55213,,,,,,0
1626,ShiaSeyW,WBD Shiawassee before Seymour St,W SHIAWASSEE ST & N CAPITOL AVE,42.737355,-84.555078,,,,,,0
1627,ShiaWalW,WBD Shiawassee past Walnut,W SHIAWASSEE ST & N WALNUT ST,42.737373,-84.557326,,,,,,0
1642,KalaCedW,WBD Kalamazoo past S Cedar St,E KALAMAZOO ST & S CEDAR ST,42.730041,-84.5463,,,,,,0
1644,KalaTowW,WBD Kalamazoo before Townsend St,W KALAMAZOO ST & S CAPITOL AVE,42.730089,-84.554739,,,,,,0
1653,GrRivAbE,EBD Gr. River past Abbot Rd,GRAND RIVER AVE & ABBOT ROAD,42.734914,-84.4834,,,,,,0
1654,GrRivDiE,EBD Gr. River Ave past Division St,GRAND RIVER AVE & BERKEY LOT ENTRANCE,42.733559,-84.47839,,,,,,0
1655,GrRivCoE,EBD Gr. River Ave past Farm Lane,GRAND RIVER AVE & COLLINGWOOD DR,42.732571,-84.47467,,,,,,0
1656,GrRivCoW,WBD Gr. River past Collingwood,621 E GRAND RIVER AVE & COLLINGWOOD DR,42.73308,-84.47556,,,,,,0
1657,GrRivDiW,WBD Gr. River Ave before Division,E GRAND RIVER AVE & DIVISION ST,42.733701,-84.477862,,,,,,0
1658,GRivMACW,WBD Gr. River past MAC AVE,E GRAND RIVER AVE & ABBOT RD,42.735003,-84.482675,,,,,,0
1660,FarECirS,SBD Farm past E Circle Dr,E CIRCLE DR & AUDITORIUM RD,42.730821,-84.476642,,,,,,0
1661,FarmAudS,SBD Farm Ln before Auditorium Rd,FARM LN & E CIRCLE DR,42.730086,-84.47788,,,,,,0
1669,MeiLLBCE,Meijer Lake Lansing Boarding Center (East Side),,42.762043,-84.502023,,,,,,0
1672,MichGraE,EBD Michigan past Grand Ave,E MICHIGAN AVE & GRAND AVENUE,42.733595,-84.549995,,,,,,0
1673,MichCedE,EBD Michigan past Cedar St,E MICHIGAN AVE & N CEDAR ST,42.733567,-84.546187,,,,,,0
1674,MichLarE,EBD Michigan past Larch St,E MICHIGAN AVE & N LARCH ST,42.733539,-84.544295,,,,,,0
1675,MichHosE,EBD Michigan after S Hosmer St,E MICHIGAN AVE & S 8TH ST,42.733537,-84.539934,,,,,,0
1676,MichPenE,EBD Michigan past Pennsylvania,E MICHIGAN AVE & past Pennsylvania,42.73352,-84.5374,,,,,,0
1677,MichJonE,EBD Michigan past Jones St,E MICHIGAN AVE & past Jones,42.7335,-84.53411,,,,,,0
1678,MichHolE,EBD Michigan past Holmes St,E MICHIGAN AVE & S HOLMES ST,42.73353,-84.53116,,,,,,0
1679,MichLatE,EBD Michigan past Lathrop St,E MICHIGAN AVE & ALLEN ST,42.73352,-84.52792,,,,,,0
1680,MichSheE,EBD Michigan past Sheperd St,E MICHIGAN AVE & LESLIE ST,42.73354,-84.52566,,,,,,0
1681,MichCleE,EBD Michigan past Clemens Ave,E MICHIGAN AVE & N CLEMENS AVE,42.733582,-84.522024,,,,,,0
1682,MichMagE,EBD Michigan before S Magnolia Av,E MICHIGAN AVE & S FAIRVIEW AVE,42.73358,-84.52023,,,,,,0
1683,MichFosE,EBD Michigan past Foster Ave,E MICHIGAN AVE & N FOSTER AVE,42.73355,-84.51726,,,,,,0
1684,MichMifE,EBD Michigan past Mifflin Ave,E MICHIGAN AVE & KIPLING BLVD,42.733578,-84.514862,,,,,,0
1688,MichFriE,EBD Michigan Ave past Friendship Cl,MICHIGAN AVE & RENIGER CT,42.733309,-84.501485,,,,,,0
1689,MichHigE,EBD Michigan past Highland Ave,MICHIGAN AVE & RENIGER CT,42.733308,-84.499692,,,,,,0
1690,MichBroE,EBD Michigan past Brody Rd W,MICHIGAN AVE & MICHIGAN/HARRISON TURNAROUND,42.733305,-84.495724,,,,,,0
1691,MichHarE,EBD Michigan past Harrison Rd,MICHIGAN AVE & S HARRISON RD,42.733464,-84.49323,,,,,,0
1693,MichDelE,EBD Michigan Ave before Delta St,MICHIGAN AVE & MICHIGAN TURNAROUND,42.734686,-84.488449,,,,,,0
1694,GrRivBoE,EBD Gr. River Ave past Bogue St,E GRAND RIVER AVE & BOGUE ST,42.731825,-84.471465,,,,,,0
1695,GrRivRiE,EBD Gr. River Ave past River St,E GRAND RIVER AVE & RIVER ST,42.731215,-84.469096,,,,,,0
1696,GrRivSpE,EBD Gr. River Ave before Spartan Av,E GRAND RIVER AVE & STODDARD AVE,42.730406,-84.466063,,,,,,0
1697,GrRivHaE,EBD Gr. River Ave past S Hagadorn,1604 E GRAND RIVER AVE & N HAGADORN RD,42.729212,-84.461803,,,,,,0
1698,GrRivMpE,EBD Gr. River Ave at Maplewood Dr,E GRAND RIVER AVE & OAKLAND DR,42.72845,-84.45887,,,,,,0
1699,GrRivBrE,EBD Gr. River past Brookfield,E GRAND RIVER AVE & Brookfield,42.72784,-84.45661,,,,,,0
1700,GrRivDaE,EBD Gr. River before Dawn,E GRAND RIVER AVE & DAWN AVE,42.726445,-84.451835,,,,,,0
1701,GrRivPaE,EBD Gr. River Ave before Park Lake,E GRAND RIVER AVE,42.725493,-84.448483,,,,,,0
1702,GrRivSmE,EBD Gr. River Ave before Small Acre,W GRAND RIVER AVE & CANADIAN NATIONAL RAILWAY,42.72431,-84.44096,,,,,,0
1703,GrRivNaE,EBD Gr. River Ave past Nakoma Dr,W GRAND RIVER AVE & MONTROSE AVE,42.72337,-84.43544,,,,,,0
1704,GrRivGVE,EBD Gr. River Ave after Grand View,W GRAND RIVER AVE & GRANDVIEW AVE,42.72272,-84.43155,,,,,,0
1705,GrRivOkE,EBD Gr. River Ave past Okemos Rd,W GRAND RIVER AVE & OKEMOS MEIJER LOT,42.72196,-84.42705,,,,,,0
1706,MeijOkem,Okemos Meijer,OKEMOS MEIJER LOT & OKEMOS MEIJER LOT,42.71995,-84.42464,,,,,,0
1712,GrRivMrW,WBD Gr. River Ave past Marsh Rd,2040 W GRAND RIVER AVE & MERIDIAN MALL LOT,42.720806,-84.420748,,,,,,0
1713,GrRivOkW,WBD Gr. River past Okemos Rd,W GRAND RIVER AVE & OKEMOS RD,42.722238,-84.428004,,,,,,0
1714,GrRivGrW,WBD Gr. River past Grand View,W GRAND RIVER AVE & Grand View,42.7231,-84.43291,,,,,,0
1715,GrRivMnW,WBD Gr. River past Montrose Av,W GRAND RIVER AVE & MONTROSE AVE,42.72359,-84.43585,,,,,,0
1716,GrRivMhW,WBD Gr. River past Mohawk Rd,W GRAND RIVER AVE & SMALL ACRES LN,42.72456,-84.44176,,,,,,0
1717,GrRivPaW,WBD Gr. River past Park Lake R,E GRAND RIVER AVE & Park Lake Rd.,42.72586,-84.4493,,,,,,0
1718,GrRivNoW,WBD Gr. River past Northwind D,E GRAND RIVER AVE & Northwind,42.72715,-84.45379,,,,,,0
1719,GrRivBrW,WBD Gr.  River past E Brookfield,E GRAND RIVER AVE & E BROOKFIELD DR,42.728025,-84.456732,,,,,,0
1720,GrRivMpW,WBD Gr. River past Maplewood D,E GRAND RIVER AVE & MAPLEWOOD DR,42.7288,-84.45965,,,,,,0
1721,GrRivHaW,WBD Gr. River past N Hagadorn,E GRAND RIVER AVE & S HAGADORN RD,42.729867,-84.463706,,,,,,0
1722,GrRivStW,WBD Gr. River past Stoddard Av,E GRAND RIVER AVE & STODDARD AVE,42.730999,-84.467941,,,,,,0
1723,GrRivGuW,WBD Gr. River past Gunson St,E GRAND RIVER AVE & CEDAR ST,42.73158,-84.47022,,,,,,0
1724,GrRivKeW,WBD Gr. River past Kedzie St,E GRAND RIVER AVE & ORCHARD ST,42.732346,-84.472791,,,,,,0
1725,MichDelW,WBD Michigan past Delta St,MICHIGAN AVE & LOUIS ST,42.735044,-84.488191,,,,,,0
1726,MichLouW,WBD  Michigan Ave past  Louis St,MICHIGAN AVE & BEAL ST,42.734357,-84.490772,,,,,,0
1727,MichCenW,WBD Michigan past Center St,MICHIGAN AVE & S HARRISON RD,42.733902,-84.492615,,,,,,0
1728,MichKenW,WBD Michigan before Kensington,MICHIGAN AVE & BRODY RD W,42.733664,-84.497038,,,,,,0
1730,MichFriW,WBD Michigan past Friendship Cir,MICHIGAN AVE & FRIENDSHIP CIRCLE DRIVE,42.733695,-84.502455,,,,,,0
1732,ClipMchS,SBD Clippert St before Michigan Ave,N CLIPPERT ST & E MICHIGAN AVE,42.7346,-84.5084,,,,,,0
1734,MichHowW,WBD Michigan past Howard Ave,E MICHIGAN AVE & DETROIT ST,42.73369,-84.51152,,,,,,0
1735,MichKipW,WBD Michigan before Kipling Blvd,E MICHIGAN AVE & KIPLING BOUL;EVARD,42.73368,-84.51484,,,,,,0
1736,MichFosW,WBD Michigan past Foster Ave,E MICHIGAN AVE & S FOSTER AVE,42.73371,-84.51795,,,,,,0
1737,MichMagW,WBD Michigan past Magnolia Av,E MICHIGAN AVE & MAGNOLIA STREET,42.733679,-84.520304,,,,,,0
1738,MichCleW,WBD Michigan past Clemens Ave,E MICHIGAN AVE & CLEMENS STREET,42.733699,-84.522724,,,,,,0
1739,MichMarW,WBD Michigan past Marshall Ave,E MICHIGAN AVE & ALLEN ST,42.73367,-84.52646,,,,,,0
1740,MichCusW,WBD Michigan past Custer Ave,E MICHIGAN AVE & Custer,42.733658,-84.529554,,,,,,0
1741,MichHolW,WBD Michigan past Holmes St,E MICHIGAN AVE & past Holmes,42.73365,-84.53522,,,,,,0
1742,MichPenW,WBD Michigan before Pennsylvani,E MICHIGAN AVE & BINGHAM ST,42.733652,-84.53733,,,,,,0
1743,MichHosW,WBD Michigan past Hosmer St,E MICHIGAN AVE & N HOSMER ST,42.73363,-84.54162,,,,,,0
1744,MichLarW,WBD Michigan past Larch St,E MICHIGAN AVE & LARCH STREET,42.73367,-84.54506,,,,,,0
1745,MichMusW,WBD Michigan at Museum Drive,E MICHIGAN AVE & MUSEUM ACCESS RAMP,42.733693,-84.548496,,,,,,0
1746,WashHazS,SBD Washington past Hazel St,S WASHINGTON AVE & W ELM ST,42.723099,-84.552434,,,,,,0
1748,WashSouS,SBD Washington past South St,S WASHINGTON AVE & E SOUTH ST,42.719905,-84.552424,,,,,,0
1749,WashBakS,SBD Washington before Baker St,S WASHINGTON AVE & ISLAND AVE,42.717444,-84.552437,,,,,,0
1750,WashBarS,SBD Washington past Barnes Ave,S WASHINGTON AVE,42.714787,-84.552427,,,,,,0
1751,WashMtHS,SBD Washington past Mt Hope Av,S WASHINGTON AVE & Mt Hope,42.711333,-84.553117,,,,,,0
1752,WashStrS,SBD Washington past Strathmore R,S WASHINGTON AVE & STRATHMORE RD,42.709016,-84.554997,,,,,,0
1753,WashWayS,SBD Washington past Wayburn Rd,S WASHINGTON AVE & WAYBURN RD,42.706941,-84.556754,,,,,,0
1754,WashGreS,SBD Washington past Greenlawn Av,S WASHINGTON AVE & WILLARD ST,42.705008,-84.558315,,,,,,0
1755,WashDunS,SBD Washington before Dunlap St,S WASHINGTON AVE & DUNLAP ST,42.702888,-84.560096,,,,,,0
1756,WashHodS,SBD Washington past Hodge Ave,S WASHINGTON AVE & W HODGE AVE,42.70024,-84.562271,,,,,,0
1757,WashBerS,SBD Washington past Berry Ave,S WASHINGTON AVE & W HOLMES RD,42.698236,-84.563905,,,,,,0
1758,HolmSWaW,WBD Holmes past Washington Ave,W HOLMES RD & S WASHINGTON AVE,42.697593,-84.565096,,,,,,0
1760,HolmMLKW,WBD Holmes past MLK,W HOLMES RD & S MARTIN LUTHER KING JR BLVD,42.697593,-84.567859,,,,,,0
1761,HolmSimk,WBD Holmes Rd before Simken Dr,W HOLMES RD & EXPRESS CT,42.697622,-84.579302,,,,,,0
1763,PlGrHolS,SBD Pleasant Grove past Holmes Rd,PLEASANT GROVE RD & W HOLMES RD,42.696942,-84.58231,,,,,,0
1764,PlGrWadS,SBD Pleasant Grove before Wadsworth,PLEASANT GROVE RD & HILLCREST ST,42.693327,-84.582372,,,,,,0
1765,PlGrMarS,SBD Pleasant Grove before Mary,PLEASANT GROVE RD & MARY AVE,42.691529,-84.582397,,,,,,0
1766,PlGrRisS,SBD Pleasant Grove past Risdale St,PLEASANT GROVE RD & RISDALE AVE,42.689256,-84.582409,,,,,,0
1768,ReoSidnW,WBD Reo before Sidney St,REO RD & RICHMOND ST,42.686751,-84.583674,,,,,,0
1769,ReoInghW,WBD Reo past Ingham St,REO RD & INGHAM ST,42.686787,-84.58937,,,,,,0
1770,ReoWainW,WBD Reo Rd at Wainwright Ave,REO RD & WAINWRIGHT AVE,42.686787,-84.592771,,,,,,0
1772,StiJerrN,NBD Stillwell past Jerree St,STILLWELL AVE & REO RD,42.688622,-84.59638,,,,,,0
1773,SumpAnsW,WBD Sumpter before Anson,SUMPTER ST & ANSON ST,42.689302,-84.599056,,,,,,0
1774,SumpWavW,WBD Sumpter before Waverly,SUMPTER ST & S WAVERLY RD,42.689302,-84.601769,,,,,,0
1776,ShefWavW,WBD Sheffield Blvd past Waverly Rd,SHEFFIELD BLVD & S WAVERLY RD,42.694133,-84.603513,,,,,,0
1777,ShefBayW,WBD Sheffield past Bayview Dr,SHEFFIELD BLVD & BAYVIEW DR,42.693641,-84.606717,,,,,,0
1778,SheBlR1W,WBD Sheffield before Blue River,SHEFFIELD BLVD & BLUE RIVER DR,42.693426,-84.608399,,,,,,0
1779,SheBlR2W,WBD Sheffield past Blue River Dr,SHEFFIELD BLVD & SEAWAY DR,42.693417,-84.611223,,,,,,0
1780,SeaShefS,SBD Seaway past Sheffield Blvd,SEAWAY DR & SEAWAY DR,42.691573,-84.611542,,,,,,0
1781,SeaGlenS,SBD Seaway past Glenburne Blvd,SEAWAY DR & GLENBURNE BLVD,42.689158,-84.610314,,,,,,0
1785,SumpWavE,EBD Sumpter past Waverly Rd,SUMPTER ST & Waverly,42.689194,-84.602346,,,,,,0
1786,SumpAnsE,EBD Sumpter past Anson St,SUMPTER ST & ANSON ST,42.689194,-84.599559,,,,,,0
1787,SumpStiE,EBD Sumpter before Stillwell Ave,SUMPTER ST & STILLWELL AVE,42.689257,-84.596834,,,,,,0
1788,RonAtlaE,EBD Ronald  before Atlanta Pl,RONALD ST & STILLWELL AVE,42.687557,-84.595533,,,,,,0
1789,ReoWainE,EBD Reo past Wainwright Ave,REO RD & BALLARD RD,42.686689,-84.592341,,,,,,0
1790,ReoInghE,EBD Reo past Ingham St,REO RD & INGHAM ST,42.686671,-84.588351,,,,,,0
1792,PlGrReoN,NBD Pleasant Grove past Reo Rd,PLEASANT GROVE RD & REO RD,42.686992,-84.582287,,,,,,0
1793,PlGrRisN,NBD Pleasant Grove at Risdale St,PLEASANT GROVE RD & RISDALE AVE,42.689489,-84.582262,,,,,,0
1794,PlGrMarN,NBD Pleasant Grove before Mary Ave,PLEASANT GROVE RD & MARY AVE,42.691019,-84.582237,,,,,,0
1795,PlGrHilN,NBD Pleasant Grove past Hillcrest S,PLEASANT GROVE RD & HILLCREST ST,42.693265,-84.582225,,,,,,0
1796,PlGrHolN,NBD Pleasant Grove before Holmes,PLEASANT GROVE RD & W HOLMES RD,42.696835,-84.582162,,,,,,0
1797,HolPlGrE,EBD Holmes past Pleasant Grove,W HOLMES RD & PLEASANT GROVE RD,42.697524,-84.580652,,,,,,0
1798,HolmSimE,EBD Holmes past Simkin,W HOLMES RD & EXPRESS CT,42.697514,-84.578319,,,,,,0
1801,Hol2MLKE,EBD Holmes past MLK,W HOLMES RD & S MARTIN LUTHER KING JR BLVD,42.697494,-84.566226,,,,,,0
1802,WashBerN,NBD Washington before Berry Ave,S WASHINGTON AVE & W HOLMES RD,42.698675,-84.563414,,,,,,0
1803,WashLoaN,NBD Washington before Loa St,S WASHINGTON AVE & W HODGE AVE,42.70101,-84.561472,,,,,,0
1804,WashDunN,NBD Washington past Dunlap St,S WASHINGTON AVE & DUNLAP ST,42.702772,-84.560035,,,,,,0
1805,WashGreN,NBD Washington before Greenlawn,S WASHINGTON AVE & W GREENLAWN AVE,42.704686,-84.558425,,,,,,0
1806,WashKenN,NBD Washington past Kensington R,S WASHINGTON AVE & KENSINGTON RD,42.706592,-84.556889,,,,,,0
1807,WashRocN,NBD Washington past Rockford R,S WASHINGTON AVE & W ROCKFORD RD,42.707987,-84.55571,,,,,,0
1809,WashMtHN,NBD Washington before Mt Hope A,S WASHINGTON AVE & Mt Hope,42.711333,-84.552945,,,,,,0
1810,WashBanN,NBD Washington at Bank St,S WASHINGTON AVE & Bank Street,42.712917,-84.552354,,,,,,0
1811,WashBarN,NBD Washington past Barnes Ave,S WASHINGTON AVE & W BARNES AVE,42.71527,-84.552316,,,,,,0
1812,WashBakN,NBD Washington past Baker St,S WASHINGTON AVE & WOODLAWN AVE,42.716827,-84.552303,,,,,,0
1813,WashSouN,NBD Washington Ave before South St,S WASHINGTON AVE & E SOUTH ST,42.71986,-84.552276,,,,,,0
1814,WashElmN,NBD Washington past Elm St,S WASHINGTON AVE & E ELM ST,42.722097,-84.552287,,,,,,0
1815,WashHazN,NBD Washington past Hazel St,S WASHINGTON AVE & E HAZEL ST,42.723404,-84.552274,,,,,,0
1816,WalnSagN,NBD Walnut past Saginaw St,N WALNUT ST & W MADISON ST,42.74106,-84.55686,,,,,,0
1817,WalnOakN,NBD Walnut past Oakland Ave,N WALNUT ST & W KILBORN ST,42.743879,-84.556782,,,,,,0
1818,WalnMapN,NBD Walnut past Maple St,N WALNUT ST & W GRAND RIVER AVE,42.74642,-84.556744,,,,,,0
1820,WilwCheW,WBD Willow past Chestnut St,W WILLOW ST & N PINE ST,42.74879,-84.5587,,,,,,0
1821,WilwChrW,WBD Willow before Christopher St,W WILLOW ST & CHRISTOPHER ST,42.74882,-84.56156,,,,,,0
1822,WilwLanW,WBD Willow past Lansing Ave,W WILLOW ST & PRINCETON AVE,42.748355,-84.566425,,,,,,0
1824,WilwGleW,WBD Willow past Glenrose Ave,W WILLOW ST & WESTMORELAND AVE,42.748365,-84.571192,,,,,,0
1825,WilwComW,WBD Willow past Comfort Ave,W WILLOW ST & CAWOOD ST,42.74836,-84.57484,,,,,,0
1826,WilwCleW,WBD Willow past Cleo St,W WILLOW ST & CLEO ST,42.748393,-84.576918,,,,,,0
1827,WilwSunW,WBD Willow past Sunset Ave,W WILLOW ST & SUNSET AVE,42.748403,-84.579682,,,,,,0
1828,WilwEa1W,WBD Willow before Eastfield Rd,W WILLOW ST & before Eastfield,42.748412,-84.583811,,,,,,0
1829,WilwEa2W,WBD Willow past Eastfield Rd,W WILLOW ST & past Eastfield,42.748359,-84.586959,,,,,,0
1830,WilwBoyW,WBD Willow before Boynton Dr,W WILLOW ST & Boynton,42.748421,-84.591945,,,,,,0
1831,WilwBriW,WBD Willow past Briarwood Dr,W WILLOW ST & GOULD RD,42.74839,-84.59407,,,,,,0
1832,MorrWilS,SBD Morris past Willow St,MORRIS AVE & OVERLEA DR,42.74797,-84.59625,,,,,,0
1833,MorrCorS,SBD Morris past Cornelia Dr,MORRIS AVE & CORNELIA DR,42.74646,-84.59628,,,,,,0
1834,MorrSylS,SBD Morris before Sylvan Ave,MORRIS AVE & MACON AVE,42.744914,-84.596343,,,,,,0
1835,MorrUptS,SBD Morris before Upton Rd,MORRIS AVE & HAGAN ST,42.74235,-84.59631,,,,,,0
1836,SagiMorW,WBD Saginaw past Morris Ave,W SAGINAW ST & FITTING AVE,42.7411,-84.59716,,,,,,0
1837,SagiEdgW,WBD Saginaw past Edgemont Blvd,W SAGINAW ST & EDGEMONT BLVD,42.74118,-84.60036,,,,,,0
1838,SagiWavW,WBD Saginaw past Waverly Rd,E SAGINAW HWY & N WAVERLY RD,42.74117,-84.60408,,,,,,0
1839,SagiThoW,WBD Saginaw past Thomas L Pkwy,E SAGINAW HWY & THOMAS L PKWY,42.741155,-84.606921,,,,,,0
1840,SagiClaW,WBD Saginaw past Clark Rd,E SAGINAW HWY & CLARK RD,42.741173,-84.609636,,,,,,0
1842,SagiMayW,WBD Saginaw past Maycroft Rd,E SAGINAW HWY & THEO AVE,42.741136,-84.61713,,,,,,0
1844,ElmwSagN,NBD Elmwood past Saginaw St,ELMWOOD RD & IRIS AVE,42.741502,-84.622364,,,,,,0
1845,MallElmW,WBD Mall Dr W after Elmwood Rd,W MALL DR & E MALL DR,42.745439,-84.623004,,,,,,0
1846,MallViGW,WBD Mall Dr Past Vil. Green Access,W MALL DR & LANSING MALL LOT,42.74546,-84.62936,,,,,,0
1847,FronMalE,EBD Frontage past Mall Dr,S SERVICE DR & K MART LOT,42.74094,-84.630626,,,,,,0
1850,MeijWSag,Meijer W Saginaw by Gas Station,UNNAMED ST & BARBARA DR,42.740231,-84.624882,,,,,,0
1851,SagiElmE,EBD Saginaw past Elmwood Dr,E SAGINAW HWY & ELMWOOD DR,42.741055,-84.621246,,,,,,0
1852,SagiThe,EBD Saginaw past Theo Ave,E SAGINAW HWY & RICHARD AVE,42.741028,-84.617781,,,,,,0
1853,SagiJulE,EBD Saginaw St past Julian Ave,E SAGINAW HWY & JULIAN AVE,42.741011,-84.615324,,,,,,0
1854,SagiHarE,EBD Saginaw past Harriet Ave,E SAGINAW HWY & past Harriet,42.741029,-84.612327,,,,,,0
1855,SagiRenE,EBD Saginaw past Renker Rd,E SAGINAW HWY & CLARK RD,42.741056,-84.608653,,,,,,0
1857,MorrUptN,NBD Morris before Upton Rd,MORRIS AVE & UPTON RD,42.74213,-84.59622,,,,,,0
1858,MorrSylN,NBD Morris before Sylvan Ave,MORRIS AVE & SYLVAN RD,42.74472,-84.59621,,,,,,0
1859,MorrTimN,NBD Morris past Timber Dr,MORRIS AVE & CORNELIA DR,42.74626,-84.5962,,,,,,0
1860,MorrWilN,NBD Morris before Willow St,MORRIS AVE & OVERLEA DR,42.74812,-84.59619,,,,,,0
1861,WilwGouE,EBD Willow at Gould,W WILLOW ST & BRIARWOOD DR,42.748314,-84.594869,,,,,,0
1862,WilwWesE,EBD Willow past Westfield Rd,W WILLOW ST & Westfield,42.7483,-84.59102,,,,,,0
1863,WilwEasE,EBD Willow past Eastfield Rd,W WILLOW ST & EASTFIELD RD,42.748263,-84.584939,,,,,,0
1864,WilwSu1E,EBD Willow before Sunset Ave,W WILLOW ST & Sunset St,42.7483,-84.58376,,,,,,0
1865,WilwSu2E,EBD Willow past Sunset Ave,W WILLOW ST & Sunset,42.7483,-84.57911,,,,,,0
1867,WilwJenE,EBD Willow past Jenison Ave,W WILLOW ST & N JENISON AVE,42.74828,-84.57249,,,,,,0
1868,WilwLinE,EBD Willow past Linwood St,W WILLOW ST & N MARTIN LUTHER KING JR BLVD,42.74825,-84.5681,,,,,,0
1869,WilwMLKE,EBD Willow past MLK Jr Blvd,W WILLOW ST & PRINCETON AVE,42.74823,-84.56586,,,,,,0
1871,WilwChrE,EBD Willow at Christopher St,W WILLOW ST & CHRISTOPHER ST,42.74872,-84.56194,,,,,,0
1872,PineWilS,SBD Pine St past W Willow St,N PINE ST & W GRAND RIVER AVE,42.74825,-84.55993,,,,,,0
1874,PineOakS,SBD Pine St past W Oakland Ave,N PINE ST & W OAKLAND AVE,42.743101,-84.559952,,,,,,0
1898,MalcGraE,EBD Malcolm X past S Grand Ave,E MAIN ST & S GRAND AVE,42.725452,-84.550013,,,,,,0
1899,CedaElmS,SBD Cedar past E Elm St,S CEDAR ST & E ELM ST,42.72121,-84.54555,,,,,,0
1901,CedIsbeS,SBD Cedar past Isbell St,S CEDAR ST & past Isbell,42.71387,-84.54722,,,,,,0
1902,CedMtHoS,SBD Cedar past E Mt Hope Ave,,42.710266,-84.548119,,,,,,0
1905,CedGreeS,SBD Cedar past E Greenlawn Ave,S CEDAR ST & E WILLARD AVE,42.70463,-84.54809,,,,,,0
1906,CedPariS,SBD Cedar past Paris Ave,S CEDAR ST & PARIS AVE,42.70165,-84.548113,,,,,,0
1908,CedHolmS,SBD Cedar past E Holmes Rd,S CEDAR ST & E HOLMES RD,42.69696,-84.54811,,,,,,0
1909,CedRousS,SBD Cedar past E Rouse St,S CEDAR ST & E ROUSE ST,42.69407,-84.54812,,,,,,0
1911,CedCavaS,SBD Cedar past E Cavanaugh Rd,S CEDAR ST & E CAVANAUGH RD,42.68983,-84.5481,,,,,,0
1912,CedPottS,SBD Cedar past E Potter Ave,S CEDAR ST & past Potter,42.68742,-84.54811,,,,,,0
1913,CedSyriS,SBD Cedar past E Syringa Dd,S CEDAR ST & CEDAR CT,42.6843,-84.54816,,,,,,0
1915,CedrJolS,SBD Cedar past E Jolly Rd,S CEDAR ST & E JOLLY RD,42.682484,-84.548114,,,,,,0
1916,CedArmS,SBD Cedar past  Armstrong Rd,S CEDAR ST & ARMSTRONG RD,42.67912,-84.54814,,,,,,0
1917,CedNortS,SBD Cedar past E Northrup St,S CEDAR ST & E NORTHRUP ST,42.67623,-84.54767,,,,,,0
1918,CedKaynS,SBD Cedar past Kaynorth Rd,S CEDAR ST & past Kaynorth,42.67231,-84.54577,,,,,,0
1936,EifDeerS,SBD Eifert past Deer Run Ln,N EIFERT RD & DEER RUN LN,42.637629,-84.543091,,,,,,0
1937,EifWilcS,SBD Eifert past Wilcox,N EIFERT RD & WILCOX RD,42.63309,-84.54305,,,,,,0
1938,WindRotE,EBD Windmill past Rotterdam,WINDMILL BLVD & N EIFERT RD,42.623985,-84.543249,,,,,,0
1940,EifValBr,NBD Eifert at Valley Brook Rd,N EIFERT RD & WINDMILL BLVD,42.62794,-84.5429,,,,,,0
1946,DoncAurE,EBD Doncaster past Aurelius Rd,DONCASTER AVE & AURELIUS RD,42.62919,-84.52227,,,,,,0
1976,CedCeCtN,NBD Cedar past Cedar Ct,S CEDAR ST & E SYRINGA DR,42.68634,-84.54794,,,,,,0
1990,CedElmN,NBD Cedar past E Elm St,S CEDAR ST & E ELM ST,42.72202,-84.54532,,,,,,0
1995,KalaLatE,EBD Kalamazoo past Lathrop St,E KALAMAZOO ST & ALLEN ST,42.729961,-84.528145,,,,,,0
2002,ForAureS,EBD Forest past Aurelius Rd,FOREST RD & AURELIUS RD,42.704564,-84.522755,,,,,,0
2003,ForAuroS,EBD Forest past Aurora Dr,,42.704623,-84.517659,,,,,,0
2014,JolAurE,EBD Jolly past Aurelius Rd,,42.682955,-84.52225,,,,,,0
2038,ForAuroW,WBD Forest past Aurora Rd,FOREST RD & AURORA DR,42.704686,-84.518113,,,,,,0
2046,KalaAllW,WBD Kalamazoo past Allen St,E KALAMAZOO ST & LATHROP ST,42.730068,-84.527641,,,,,,0
2050,KalaHosW,WBD Kalamazoo before Hosmer,E KALAMAZOO ST & S 8TH ST,42.729976,-84.540723,,,,,,0
2181,PennMapN,NBD Pennsylvania past Maplehill,S PENNSYLVANIA AVE & MAPLEHILL AVE,42.69264,-84.53796,,,,,,0
2182,PennIrvN,NBD Pennsylvania at Irvington Ave,S PENNSYLVANIA AVE & IRVINGTON AVE,42.69485,-84.53797,,,,,,0
2198,ShiaDorE,EBD Shiawassee near Dorrance Pl,E SHIAWASSEE ST & N CEDAR ST,42.7371,-84.54104,,,,,,0
2213,EastHowN,NBD N East past Howe,N EAST ST & E HOWE AVE,42.764088,-84.542699,,,,,,0
2223,ThomTurE,EBD Thomas past Turner St,W THOMAS ST & TURNER ST,42.7579,-84.552928,,,,,,0
2224,ThomGarE,EBD Thomas past Gary Ave,E THOMAS ST & GARY ST,42.757898,-84.549377,,,,,,0
2225,ThomHalE,EBD Thomas at Hall St,E THOMAS ST & THOMPSON ST,42.758013,-84.545678,,,,,,0
2230,HighLkLS,SBD High past Lake Lansing,N HIGH ST & LAKE LANSING RD,42.754,-84.53878,,,,,,0
2235,PennPorS,SBD Pennsylvania past Porter St,N PENNSYLVANIA AVE & PORTER ST,42.745276,-84.537861,,,,,,0
2240,ShiaMLKE,EBD Shiawassee past MLK,W SHIAWASSEE ST & N BUTLER BLVD,42.737313,-84.566884,,,,,,0
2243,JenShiaS,SBD Jenison past Shiawassee St,N JENISON AVE & W IONIA ST,42.737019,-84.57283,,,,,,0
2249,EveWHilS,SBD Everett past W Hillsdale St,EVERETT DR & W KALAMAZOO ST,42.727302,-84.577083,,,,,,0
2292,EveStJoN,NBD Everett past W St Joseph St,EVERETT DR & W SAINT JOSEPH ST,42.727168,-84.576973,,,,,,0
2305,CleoSagS,SBD Cleo before Saginaw,N VERLINDEN AVE & W SAGINAW ST,42.74127,-84.577202,,,,,,0
2338,SagBartE,EBD Saginaw past Bartlett St,W SAGINAW ST & BARTLETT ST,42.740891,-84.569654,,,,,,0
2340,SagWiscE,EBD Saginaw before Wisconsin Ave,W SAGINAW ST & WISCONSIN AVE,42.740883,-84.563332,,,,,,0
2348,SagNFosE,EBD Saginaw past N Foster Ave,E SAGINAW ST & N FOSTER AVE,42.740854,-84.517286,,,,,,0
2349,SagKiplE,EBD Saginaw past Kipling Blvd,E SAGINAW ST & KIPLING BLVD,42.740844,-84.51462,,,,,,0
2351,ChesGRiN,NBD Chester past E Grand River Ave,CHESTER RD & E GRAND RIVER AVE,42.743087,-84.5113,,,,,,0
2352,ChesCovN,NBD Chester past Covington Ct,CHESTER RD & COVINGTON CT,42.744537,-84.511225,,,,,,0
2353,ChesWooN,NBD Chester past Woodruff Ave,CHESTER RD & HOPKINS AVE,42.746729,-84.511259,,,,,,0
2365,LkLaCooW,WBD Lake Lansing past Coolidge Rd,W LAKE LANSING RD & WEST RD,42.76081,-84.504176,,,,,,0
2377,ChesHopS,SBD Chester past Hopkins Ave,CHESTER RD & Hopkins Street,42.747947,-84.511393,,,,,,0
2378,ChesWooS,SBD Chester past Woodruff Ave,CHESTER RD & WOODRUFF AVE,42.746372,-84.511395,,,,,,0
2384,GRivFaiW,WBD Grand River past Fairview,E GRAND RIVER AVE & N FOSTER AVE,42.743317,-84.521596,,,,,,0
2385,GRivWooW,WBD Grand River past Wood St,E GRAND RIVER AVE & WOOD ST,42.743283,-84.524004,,,,,,0
2390,CapiOakS,SBD Capitol past W Oakland Ave,N CAPITOL AVE & W OAKLAND AVE,42.743162,-84.553822,,,,,,0
2395,TurnGrRN,NBD Turner past Grand River Ave,TURNER ST & CLINTON ST,42.747876,-84.549506,,,,,,0
2408,DeRiBenW,WBD Delta River past Benton Blvd,DELTA RIVER DR & WESTBURY RD,42.76256,-84.583403,,,,,,0
2409,DeRiLeoW,WBD Delta River  before Leon Ave,DELTA RIVER DR & Leon Street,42.761441,-84.587655,,,,,,0
2410,DeRiNorW,WBD Delta Riverpast Northwest Ave,DELTA RIVER DR & Northwest,42.760618,-84.591465,,,,,,0
2411,DeRiNewW,WBD Delta River at Newport Dr,DELTA RIVER DR & NEWPORT DR,42.76188,-84.595987,,,,,,0
2412,DeRiAmhW,WBD Delta River past Amherst Dr,DELTA RIVER DR & CRANBROOK AVE,42.762855,-84.598875,,,,,,0
2421,CaCiAir3,NBD Capitol City past Commerce Dr,CAPITOL CITY BLVD & W CIRCLE DR,42.772403,-84.588833,,,,,,0
2442,MalcPenE,EBD Malcolm X past S Pennsylvania Ave,PENNSYLVANIA/MAIN CONNECTOR & E JOLLY RD,42.725455,-84.536452,,,,,,0
2446,CapKilbS,SBD Capitol before Kilborn St,N CAPITOL AVE & W MAPLE ST,42.745712,-84.553808,,,,,,0
2455,KalaChaE,EBD Kalamazoo past Charles St,,42.72993,-84.51316,,,,,,0
2460,CoolMelN,NBD Coolidge past Melody Ln,COOLIDGE RD & MELODY LN,42.743896,-84.503363,,,,,,0
2461,CoolLakN,NBD Coolidge past Lakeside Dr,COOLIDGE RD & Lakeside Dr.,42.747861,-84.503419,,,,,,0
2462,CoolFaiN,NBD Coolidge past Fairoaks Ct,COOLIDGE RD & FAIROAKS CT,42.750984,-84.503415,,,,,,0
2463,CoolFarN,NBD Coolidge past Farwood Dr,COOLIDGE RD & FARWOOD DR,42.752925,-84.503412,,,,,,0
2464,CoolNShN,NBD Coolidge past N Shore Dr,COOLIDGE RD & N SHORE DR,42.75527,-84.503372,,,,,,0
2465,CoolRamN,NBD Coolidge before Ramblewood Dr,COOLIDGE RD & N SHORE DR,42.757212,-84.503357,,,,,,0
2466,CoolLkLN,NBD Coolidge before W Lake Lansing,COOLIDGE RD & W LAKE LANSING RD,42.760254,-84.503353,,,,,,0
2468,CoolRamS,SBD Coolidge past Ramblewood Dr,COOLIDGE RD & RAMBLEWOOD DR,42.757391,-84.503504,,,,,,0
2469,CoolNSh1,SBD Coolidge before N Shore Dr,COOLIDGE RD & RAMBLEWOOD DR,42.755682,-84.503519,,,,,,0
2470,CoolNSh2,SBD Coolidge past N Shore Dr,COOLIDGE RD & WOODBROOK DR,42.753883,-84.503558,,,,,,0
2472,CoolPebS,SBD Coolidge past Pebble Creek Blvd,COOLIDGE RD & PEBBLE CREEK BLVD,42.74999,-84.503563,,,,,,0
2473,CoolStoS,SBD Coolidge past Stonewood Dr,COOLIDGE RD & LAKE SIDE DR,42.747306,-84.503542,,,,,,0
2474,CoolDuaS,SBD Coolidge past Dual Chartwell Ca,COOLIDGE RD & CHARTWELL DUAL CARRIAGE WAY,42.745194,-84.503508,,,,,,0
2475,CoolMelS,SBD Coolidge past Melody Ln,COOLIDGE RD & MELODY LN,42.743458,-84.503511,,,,,,0
2490,HolmMalN,NBD Holmes before Malcolm X,S HOLMES ST & E MAIN ST,42.725185,-84.533001,,,,,,0
2493,MACBurcS,SBD MAC past Burcham,634 MAC AVE & BURCHAM DR,42.740236,-84.480738,,,,,,0
2495,AbbCentN,NBD Abbot before Centerlawn St,ABBOT RD & CENTERLAWN ST,42.74185,-84.483659,,,,,,0
2503,LkLaAbbE,EBD Lake Lansing past Abbot Rd,E LAKE LANSING RD & ABBOT RD,42.759155,-84.48298,,,,,,0
2504,LkLaGosW,WBD Lake Lansing before Gossard Ave,3383 E LAKE LANSING RD & GOSSARD AVE,42.758735,-84.478314,,,,,,0
2509,HagLkLaN,NBD Hagadorn past Lake Lansing,6020 N HAGADORN RD & E LAKE LANSING RD,42.755598,-84.462208,,,,,,0
2510,HagHoriN,NBD Hagadorn past Horizon Dr,N HAGADORN RD & HORIZON DR,42.756708,-84.462218,,,,,,0
2511,HagBircN,NBD Hagadorn past Birch Row Dr,N HAGADORN RD & COBBLERS CT,42.7587,-84.463281,,,,,,0
2512,HagFarrN,NBD Hagadorn past Farrington Ct,N HAGADORN RD & FARRINGTON CT,42.760125,-84.464595,,,,,,0
2513,BiRoCobW,WBD Birch Row before Cobbler's Dr,N HAGADORN RD & before Cobb,42.7609,-84.463437,,,,,,0
2514,BiRoCapW,WBD Birch Row past Captain's Way,BIRCH ROW DR & FARRINGTON CT,42.760311,-84.461047,,,,,,0
2515,BiRoBriW,WBD Birch Row past Briarwick Ct,BIRCH ROW DR & COACH HOUSE ST,42.759338,-84.461854,,,,,,0
2520,BiRoHarW,WBD Birch Row before Hardy Ave,3104 BIRCH ROW DR & HARDY AVE,42.758364,-84.466785,,,,,,0
2521,BiRoGibW,WBD Birch Row past Gibson Ave,BIRCH ROW DR & POLLARD AVE,42.758328,-84.469523,,,,,,0
2522,BiRoPorW,WBD Birch Row past Porter Ave,3214 BIRCH ROW DR & RUTHERFORD AVE,42.758341,-84.473627,,,,,,0
2523,LkLaTowW,WBD Lake Lansing past Towar Ave,E LAKE LANSING RD & BIRCH ROW DR,42.758457,-84.475935,,,,,,0
2524,LakGossE,EBD Lk. Lansing Rd past Gossard Ave,3412 E LAKE LANSING RD & GOSSARD AVE,42.758623,-84.478434,,,,,,0
2525,AbbLkLaN,NBD Abbot past W Lake Lansing Rd,Abbot Rd & E Lake Lansing Rd,42.75962,-84.48362,,,,,,0
2535,MACLindS,SBD MAC past Linden,329 MAC AVE & MARIOTT SERVICE DRIVE,42.736603,-84.480781,,,,,,0
2536,AlbeMACE,EBD Albert past MAC,ALBERT AVE & MAC Avenue,42.735431,-84.480856,,,,,,0
2539,ShaBogW2,WBD N Shaw past Bogue,N SHAW LN & WATERS EDGE DR,42.726269,-84.474247,,,,,,0
2542,HarWildN,NBD Harrison past Wildwood Dr,720 N HARRISON RD & SOUTHLAWN AVE,42.740596,-84.493539,,,,,,0
2543,HarNortN,NBD Harrison past Northlawn St,940 N HARRISON RD & NORTHLAWN ST,42.743119,-84.493572,,,,,,0
2544,HarPinFN,NBD Harrison past Pine Forest Dr,N HARRISON RD & LONGFELLOW DR,42.746824,-84.493517,,,,,,0
2545,HarWoodN,NBD Harrison past Woodingham Dr,1412 N HARRISON RD & WOODINGHAM DR,42.74856,-84.493551,,,,,,0
2546,HarGainN,NBD Harrison past Gainsborough Dr,1620 N HARRISON RD & DARLINGTON AVE,42.751468,-84.493498,,,,,,0
2547,HarBlanN,NBD Harrison past Blanchette Dr,1800 N HARRISON RD & BLANCHETTE DR,42.753491,-84.493458,,,,,,0
2548,HarCrowN,NBD Harrison Rd at Crown Blvd,1900 N HARRISON RD & CROWN BLVD,42.755343,-84.493505,,,,,,0
2549,HarTarlN,NBD Harrison past Tarleton Ave,2210 N HARRISON RD & TARLETON AVE,42.75843,-84.493475,,,,,,0
2550,LkLaHarW,WBD Lake Lansing past N Harrison,808 W LAKE LANSING RD & BURNT TREE LN,42.760161,-84.494281,,,,,,0
2551,LkLaBarW,WBD Lake Lansing at Barclay Ln,830 W LAKE LANSING RD & BARCLAY LN,42.760735,-84.496399,,,,,,0
2552,LkLaMarW,WBD Lake Lansing past Marfitt Rd,W LAKE LANSING RD & MARFITT RD,42.7609,-84.499146,,,,,,0
2560,HarBlanS,SBD Harrison past Blanchette Dr,1739 N HARRISON RD & CRICKET LN,42.753178,-84.493606,,,,,,0
2561,HarGainS,SBD Harrison past Gainsborough Dr,1545 N HARRISON RD & GAINSBOROUGH DR,42.75086,-84.493671,,,,,,0
2568,HarKalaS,SBD Harrison past Kalamazoo St,S HARRISON RD & MICHIGAN/HARRISON TURNAROUND,42.728615,-84.493986,,,,,,0
2570,HarSeveS,SBD Harrison Rd before Sever Dr,S HARRISON RD & LILAC AVE,42.72253,-84.493971,,,,,,0
2572,HarServS,SBD Harrison before Service Rd,HARRISON RD & S HARRISON RD,42.718843,-84.493964,,,,,,0
2573,CreHarS1,WBD N Crescent past Harrison,CRESCENT RD,42.716285,-84.494619,,,,,,0
2574,CreHarN1,WBD S Crescent before S Middlevale,SOUTH CRESCENT RD & S HARRISON RD,42.71371,-84.497533,,,,,,0
2575,MidvalS1,Middlevale past N Crescent Rd,MIDDLEVALE RD & S HARRISON RD,42.717371,-84.49883,,,,,,0
2576,MidvalN2,Middlevale near Laundromat,MIDDLEVALE RD & S HARRISON RD,42.717605,-84.501507,,,,,,0
2580,CreHarN2,EBD N Crescent before Harrison,CRESCENT RD & S HARRISON RD,42.716276,-84.495564,,,,,,0
2581,HarCresN,NBD Harrison past Crescent Rd,S HARRISON RD & CRESCENT RD,42.71657,-84.493599,,,,,,0
2583,HarWilsN,NBD Harrison past Wilson Rd,S HARRISON RD & LILAC AVE,42.722592,-84.49359,,,,,,0
2586,ShaChemE,EBD S Shaw at Chemistry,S SHAW LN & RAMP 1,42.725171,-84.475076,,,,,,0
2592,HagGlenN,NBD Hagadorn at Glenwood Apt.,4630 S HAGADORN RD & TWYCKINGHAM DR,42.71545,-84.461977,,,,,,0
2598,HagCahiN,NBD Hagadorn past Cahill Dr,N HAGADORN RD & CAHILL DR,42.734134,-84.462088,,,,,,0
2599,HagLindN,NBD Hagadorn past Linden St,N HAGADORN RD & LINDEN ST,42.736541,-84.462108,,,,,,0
2600,HagSnydN,NBD Hagadorn past Snyder Rd,N HAGADORN RD & MOUNT VERNON AVE,42.738876,-84.46214,,,,,,0
2601,HagBurcN,NBD Hagadorn past Burcham Dr,N HAGADORN RD & BURCHAM DR,42.741186,-84.46218,,,,,,0
2603,HagHasS,SBD Hagadorn past Haslett,N HAGADORN RD & CEDARHILL DR,42.746223,-84.462372,,,,,,0
2605,HasDeerE,EBD Haslett past Deerpath Ln,1800 HASLETT RD & DEER PATH LN,42.746904,-84.454384,,,,,,0
2614,HagaSnyS,SBD Hagadorn past Snyder Rd,587 N HAGADORN RD & SNYDER RD,42.73842,-84.462301,,,,,,0
2615,HagBeecS,SBD Hagadorn past Beech St,N HAGADORN RD & LINDEN ST,42.736505,-84.462256,,,,,,0
2616,HagAlbeS,SBD Hagadorn past Albert Ave,N HAGADORN RD & CAHILL DR,42.734152,-84.462236,,,,,,0
2630,MarWLakN,SBD Marsh past W Lake Dr,MARSH RD & LAKE DR,42.749369,-84.408536,,,,,,0
2640,LakMartW,WBD Lake Lansing past Martinus St,LAKE LANSING RD & MARTINUS ST,42.753989,-84.410035,,,,,,0
2641,LakCyprW,WBD Lake Lansing past Cypress St,LAKE LANSING RD & GREENMAN ST,42.753982,-84.41167,,,,,,0
2642,LakBuenW,WBD Lake Lansing past Buena Pkwy,LAKE LANSING RD & BUENA PKWY,42.75398,-84.416155,,,,,,0
2644,LacLkLN2,NBD LacDuMont near #2091,LAC DU MONT DR,42.752497,-84.424649,,,,,,0
2645,LacLkLN1,NBD LacDuMont before Lake Lansing,2101 LAC DU MONT DR & 2101 Lac DuMont,42.75501,-84.423807,,,,,,0
2646,LacLkLS1,SBD LacDuMont past Lake Lansing,LAC DU MONT DR & LAKE LANSING RD,42.755109,-84.423955,,,,,,0
2647,LacBoiN1,NBD LacDuMont past Bois Isle,1941 LAC DU MONT DR & HASLETT RD,42.749332,-84.420541,,,,,,0
2652,LakBoisE,EBD Lake Lansing before Bois Isle,LAKE LANSING RD & LAC DU MONT DR,42.755402,-84.422283,,,,,,0
2655,MarLakCS,SBD Marsh past E Lake Lansing Ct.,MARSH RD & LAKE DR,42.752788,-84.408662,,,,,,0
2665,MarHaslS,SBD Marsh before Haslett Rd,MARSH RD & HASLETT RD,42.747902,-84.408491,,,,,,0
2666,MarNemoS,SBD Marsh past Nemoke Trl,MARSH RD & NEMOKE TRL,42.741933,-84.408151,,,,,,0
2667,MarRollS,SBD Marsh past Rolling Hills Dr,MARSH RD & Rolling Hills Dr,42.73821,-84.40821,,,,,,0
2668,MarHuntS,SBD Marsh past Huntsville Dr,MARSH RD & MONTGOMERY CT,42.736055,-84.409359,,,,,,0
2669,MarTihaS,SBD Marsh Rd at Tihart Dr,MARSH RD & 5TH AVE,42.733078,-84.410829,,,,,,0
2675,DobBircN,NBD Dobie past Birchwood Dr,DOBIE RD & BIRCHWOOD DR,42.707485,-84.410283,,,,,,0
2676,DobHatcS,SBD Dobie past Hatch Rd,DOBIE RD & HATCH RD,42.704381,-84.410414,,,,,,0
2678,DobSashS,SBD Dobie past Sashabaw Rd,DOBIE RD & SASHABAW DR,42.690941,-84.41045,,,,,,0
2682,DobAlgoN,NBD Dobie past Algoma Dr,DOBIE RD & ALGOMA DR,42.687675,-84.410299,,,,,,0
2684,JolFairW,WBD Jolly past Fairhills Dr,JOLLY RD & SUMMERGATE LN,42.683063,-84.420653,,,,,,0
2691,OkJoOakN,NBD Okemos past Jolly Oak Rd,3590 OKEMOS RD & ASSOCIATION DR,42.68528,-84.432365,,,,,,0
2692,OkeTamaN,NBD Okemos past Tamarack Dr,OKEMOS RD & TAMARACK DR,42.691275,-84.432339,,,,,,0
2695,OkeKinaN,NBD Okemos past Kinawa Dr,OKEMOS RD & Kinawa Dr,42.697422,-84.432324,,,,,,0
2696,OkeSow1N,NBD Okemos before Sower Blvd,OKEMOS RD & before Sower,42.701582,-84.43229,,,,,,0
2698,OkeScieN,NBD Okemos past Science Pkwy,4321 OKEMOS RD & RIVERWOOD DR,42.707202,-84.432277,,,,,,0
2727,GrRivWeE,EBD Grand River Ave at Webberville,GRAND RIVER AVE W,42.667161,-84.187707,,,,,,0
2730,GrRivSkE,EBD Grand River past Skirting Av,E GRAND RIVER AVE & N MULLET ST,42.685508,-84.265047,,,,,,0
2735,GrRivJaW,WBD Grand River Ave before Jackson,W GRAND RIVER AVE & Jackson,42.688771,-84.285533,,,,,,0
2736,GrRivMcW,WBD Grand River past McCormick,W GRAND RIVER AVE & McCormick,42.687839,-84.292767,,,,,,0
2738,GrRivCrW,WBD Grand River past Corwin Rd,W GRAND RIVER AVE & Corwin,42.68806,-84.30314,,,,,,0
2740,GrRivSpW,WBD Grand River Ave at Spruce Rd,W GRAND RIVER AVE & VAN ATTA RD,42.712168,-84.37758,,,,,,0
2797,EastBanN,NBD N East past Banghart,N EAST ST & BANGHART ST,42.760625,-84.542739,,,,,,0
2801,HighGRvN,NBD High past E Grand River Ave,N HIGH ST & DRURY LN,42.747881,-84.53862,,,,,,0
2837,HarGRivN,NBD Harrison past Grand River,N HARRISON RD & HUNTINGTON RD,42.738529,-84.493542,,,,,,0
2842,KalaHarW,WBD Kalamazoo past Harrison,E KALAMAZOO ST & FARM LN,42.729206,-84.494551,,,,,,0
2843,KalDeHaE,EBD Kalamazoo past Dem Hall Dr,E KALAMAZOO ST & UNIVERSITY VILLAGE ENTRANCE,42.730105,-84.489108,,,,,,0
2848,HasDeerW,WBD Haslett past Deerpath Ln,HASLETT RD & WOODSIDE DR,42.747003,-84.454777,,,,,,0
2849,HasFernW,WBD Haslett past Ferndale Ave,1655 HASLETT RD & PARKVALE AVE,42.747006,-84.45823,,,,,,0
2854,MidvalS4,Middlevale Rd before S Crescent Rd,MIDDLEVALE RD & S HARRISON RD,42.713773,-84.498208,,,,,,0
2859,HarFoAcN,NBD Harrison Rd at Forest Acres,S HARRISON RD & TECHNOLOGY BLVD,42.709161,-84.493806,,,,,,0
2864,MtHoComW,WBD Mt Hope before Comanche Dr,E MOUNT HOPE RD & COPPERHILL DR,42.71188,-84.446019,,,,,,0
2866,OkeKewaS,SBD Okemos past Kewanee Way,4397 OKEMOS RD & KEWANEE WAY,42.709,-84.432432,,,,,,0
2867,OkeScieS,SBD Okemos past Science Pkwy,OKEMOS RD & PAST SCIENCE BOULEVARD,42.70662,-84.432438,,,,,,0
2878,RedCWShN,NBD Red Cedar past W Shaw Ln,RED CEDAR RD & SCIENCE RD,42.728695,-84.482845,,,,,,0
2879,RedCCheW,WBD Red Cedar before Chestnut Rd,RED CEDAR RD & SCIENCE RD,42.730765,-84.486355,,,,,,0
2880,OkeSoweS,SBD Okemos past Sower Blvd,OKEMOS RD & past Sower,42.701135,-84.432438,,,,,,0
2881,OkemBenS,SBD Okemos past  Bennett Rd,3965 OKEMOS RD & HERITAGE AVE,42.696384,-84.432462,,,,,,0
2882,OkeKnobS,SBD Okemos past Knob Hill Dr,OKEMOS RD & KNOB HILL DR,42.690496,-84.4325,,,,,,0
2883,OkeJoOkS,SBD Okemos before Jolly Oaks Rd,OKEMOS RD & JOLLY OAK RD,42.685772,-84.432511,,,,,,0
2887,MtHoSemW,WBD Mt Hope past Seminole Pl,E MOUNT HOPE RD & INDIAN HILLS DR,42.711927,-84.433113,,,,,,0
2898,ChesDemS,SBD Chestnut Rd before Dem. Hall,CHESTNUT RD & SCIENCE RD,42.729979,-84.487707,,,,,,0
2912,HasWestE,EBD Haslett past Westminster Way,2319 HASLETT RD & past Westminster,42.746916,-84.434431,,,,,,0
2913,HasNOkeE,EBD Haslett past N Okemos Rd,2111 HASLETT RD & past OKEMOS RD,42.747004,-84.426322,,,,,,0
2915,ChesDemN,NBD Chestnut past Dem Hall Dr.,CHESTNUT RD & ELM ST,42.729782,-84.487708,,,,,,0
2916,RedCCheE,EBD Red Cedar past Chestnut,RED CEDAR RD & FARM LN,42.730209,-84.485471,,,,,,0
2917,RedCShaS,SBD Red Cedar at Wells Hall,RED CEDAR RD & ELM ST,42.728623,-84.482919,,,,,,0
2918,ShaFarmE,EBD S Shaw before Farm,S SHAW LN & FARM LN,42.725175,-84.479498,,,,,,0
2931,HasNOkeW,WBD Haslett past N Okemos Rd,HASLETT RD & WESTMINSTER WAY,42.747097,-84.428361,,,,,,0
2949,CoolLkLS,SBD Coolidge Rd past W Lake Lansing,COOLIDGE RD & W LAKE LANSING RD,42.760004,-84.503501,,,,,,0
2995,BJTrCoW6,WBD Trappers Cove before Dunckel,TRAPPERS COVE TRL & BEAU JARDIN DR,42.687483,-84.508705,,,,,,0
3005,WashStJN,NBD Washington past St Joseph,S WASHINGTON AVE & E HILLSDALE ST,42.726643,-84.552247,,,,,,0
3012,CapiIonS,SBD Capitol past W Ionia St,N CAPITOL AVE & W OTTAWA ST,42.735583,-84.553937,,,,,,0
3013,CapiAllS,SBD Capitol before W Allegan St,S CAPITOL AVE & E MICHIGAN AVE,42.732871,-84.553988,,,,,,0
3014,CapiWasS,SBD Capitol past W Washtenaw St,S CAPITOL AVE & W WASHTENAW ST,42.73101,-84.553977,,,,,,0
3024,ShiaCedW,WBD Shiawassee past Cedar,E SHIAWASSEE ST & N CEDAR ST,42.737307,-84.54697,,,,,,0
3028,ShiaPinW,WBD Shiawassee past N Pine St,W SHIAWASSEE ST & N SYCAMORE ST,42.737392,-84.560631,,,,,,0
3029,ShiaButW,WBD Shiawassee past N Butler Blvd,W SHIAWASSEE ST & N MARTIN LUTHER KING JR BLVD,42.737429,-84.56498,,,,,,0
3033,OttaCapW,WBD Ottawa past N Capitol Ave,W OTTAWA ST & SEYMOUR AVE,42.734724,-84.554257,,,,,,0
3034,OttaCheW,WBD Ottawa St before Chestnut St,W OTTAWA ST & N CHESTNUT ST,42.734743,-84.558139,,,,,,0
3036,AllButlE,EBD Allegan past Butler,W ALLEGAN ST & S BUTLER BLVD,42.732651,-84.564245,,,,,,0
3037,AllSycE,EBD Allegan St before S Sycamore St,W ALLEGAN ST & S BUTLER BLVD,42.732632,-84.561665,,,,,,0
3038,AllPineE,EBD  Allegan past S Pine St,W ALLEGAN ST & S PINE ST,42.732622,-84.558545,,,,,,0
3039,AllTownE,EBD Allegan before Townsend St,W ALLEGAN ST & TOWNSEND ST,42.732612,-84.555781,,,,,,0
3040,AllCapiE,EBD Allegan past Capitol Ave,W ALLEGAN ST & CAPITOL,42.732612,-84.55346,,,,,,0
3045,KalaWalW,WBD Kalamazoo past S Walnut St,W KALAMAZOO ST & S WALNUT ST,42.730081,-84.557404,,,,,,0
3046,KalaPinW,WBD Kalamazoo past S Pine St,W KALAMAZOO ST & S PINE ST,42.730099,-84.560623,,,,,,0
3047,KalaButW,WBD Kalamazoo before S Butler Blvd,W KALAMAZOO ST & MICHIGAN STATE LIBRARY/MUSEUM,42.730118,-84.564123,,,,,,0
3091,GrRivMEW,WBD Gr. River past Mall Entrance,W GRAND RIVER AVE & W OTTAWA ST,42.721706,-84.424861,,,,,,0
3159,ReoSidE,EBD Reo Rd past Sidney St,REO RD & RICHMOND ST,42.686635,-84.584693,,,,,,0
3192,WilwCleE,EBD Willow before Cleo,W WILLOW ST & CLEO ST,42.74828,-84.57682,,,,,,0
3206,SagiRobW,WBD Saginaw past Robbins Rd,E SAGINAW HWY & WINSFRED AVE,42.7411,-84.61443,,,,,,0
3208,SagiMalW,WBD Saginaw before Mall Dr E,E SAGINAW HWY & IRIS AVE,42.741153,-84.620165,,,,,,0
3230,PineMapS,SBD Pine past W Maple St,N PINE ST & W MAPLE ST,42.74593,-84.55996,,,,,,0
3240,MLKGRivS,Peckham Riverside,N MARTIN LUTHER KING JR BLVD & MLK/LOGAN ACCESS CUTOFF,42.758879,-84.567367,,,,,,0
3258,CedBkrS,SBD Cedar past Baker St,S CEDAR ST & BAKER ST,42.71615,-84.54649,,,,,,0
3265,CedCrsS,SBD Cedar St before Crest St,S CEDAR ST & BROOKLAND BLVD,42.69965,-84.54811,,,,,,0
3268,CedMasS,SBD Cedar past E Mason St,S CEDAR ST & MAPLEHILL AVE,42.69205,-84.54812,,,,,,0
3275,MilLCe2E,EBD Miller past S Cedar St,E MILLER RD & MEIJER PENNSYLVANIA LOT,42.669165,-84.542129,,,,,,0
3276,PennMilS,SBD Pennsylvania past Miller Rd,S PENNSYLVANIA AVE & RAMADA DR,42.668808,-84.538256,,,,,,0
3277,PennPieS,SBD Pennsylvania before Pierpoint,S PENNSYLVANIA AVE & PENNSYLVANIA/E I 96 CONNECTOR RAMP,42.66297,-84.5383,,,,,,0
3279,CedLongS,SBD Cedar past Long Blvd,S CEDAR ST & LONG BLVD,42.65865,-84.5368,,,,,,0
3280,CedWilS,SBD Cedar past Willoughby Rd,CEDAR ST & S CEDAR ST,42.653857,-84.5319,,,,,,0
3282,CedFayS,SBD Cedar past Fay Ave,CEDAR ST,42.649467,-84.526703,,,,,,0
3283,AurSpahS,SBD Aurelius before Spahr Ave,AURELIUS RD & CEDAR ST,42.64675,-84.52354,,,,,,0
3284,AurDecaS,SBD Aurelius Rd before Decamp Ave,AURELIUS RD & DECAMP AVE,42.64418,-84.52354,,,,,,0
3290,EifHoltS,SBD Eifert past W Holt Rd,N EIFERT RD & W HOLT RD,42.639742,-84.543115,,,,,,0
3299,WilcEifE,EBD Wilcox past Eifert Rd,WILCOX RD & TUPELO TRL,42.633003,-84.541439,,,,,,0
3300,WilcLauE,EBD Wilcox past Laurelwood Dr,WILCOX RD & DOGWOOD DR,42.632956,-84.537133,,,,,,0
3303,WilcHeaE,EBD Wilcox past Heather Haven Dr,WILCOX RD & FOXWOOD DR,42.632973,-84.534484,,,,,,0
3305,WilcFoxE,EBD Wilcox past Foxwood Dr,WILCOX RD & FOXWOOD DR,42.632944,-84.530816,,,,,,0
3306,WilcMeaE,EBD Wilcox past Meadow Dr,WILCOX RD & MEADOW DR,42.632906,-84.526511,,,,,,0
3311,SycParW,WBD Sycamore past Park St,W SYCAMORE ST & S PARK ST,42.581242,-84.445052,,,,,,0
3313,CedColN,NBD Cedar past Columbia St,N CEDAR ST & CENTER ST,42.582932,-84.452771,,,,,,0
3315,CedCurN,NBD Cedar past Curtis St,N CEDAR ST & CURTIS ST,42.588644,-84.456645,,,,,,0
3318,AurWeswN,NBD Aurelius before Weswilmar Dr,AURELIUS RD & WILCOX RD,42.634112,-84.523296,,,,,,0
3319,AurSycaN,NBD Aurelius past Sycamore St,AURELIUS RD & GROVE AVE,42.636689,-84.523317,,,,,,0
3321,AurDoncN,NBD Aurelius past Doncaster,AURELIUS RD & DONCASTER AVE,42.629621,-84.523202,,,,,,0
3325,CedVeteN,NBD Cedar past Veterans Dr,CEDAR ST & VETERANS DR,42.64129,-84.51625,,,,,,0
3327,CedNortN,NBD Cedar St at North St,CEDAR ST & NORTH ST,42.644981,-84.520254,,,,,,0
3328,CedKellN,NBD Cedar St before Keller Rd,CEDAR ST & E LENAWEE ST,42.646995,-84.522546,,,,,,0
3329,CedAureN,NBD Cedar past Aurelius Rd,CEDAR ST & NORTH ST,42.6481,-84.52421,,,,,,0
3330,CedFayN,NBD Cedar St at Fay Ave,CEDAR ST & FAY ST,42.65028,-84.52762,,,,,,0
3331,CedWillN,NBD Cedar past Willoughby Rd,S CEDAR ST & BENTON ST,42.65534,-84.53311,,,,,,0
3333,CedRothN,NBD Cedar past Roth Dr,S CEDAR ST & E I 96,42.65976,-84.53735,,,,,,0
3334,PennPieN,NBD Pennsylvania past Pierpoint,S PENNSYLVANIA AVE & PENNSYLVANIA/E I 96 CONNECTOR RAMP,42.66317,-84.53814,,,,,,0
3335,CedMilN,NBD Cedar past Miller Rd,S CEDAR ST & CURRY LN,42.67015,-84.54441,,,,,,0
3336,CedKayN,NBD Cedar past Kaynorth Rd,S CEDAR ST & CURRY LN,42.67352,-84.54619,,,,,,0
3337,CedNrpN,NBD Cedar past Northrup St,S CEDAR ST & E NORTHRUP ST,42.67691,-84.54767,,,,,,0
3340,CedSamN,NBD Cedar past Samantha Ave,S CEDAR ST & E EVERETTDALE AVE,42.68894,-84.54793,,,,,,0
3342,CedHntN,NBD Cedar past Hunter Blvd,S CEDAR ST & E ROUSE ST,42.694975,-84.547995,,,,,,0
3343,CedHolmN,NBD Cedar past Holmes Rd,S CEDAR ST & E ROUSE ST,42.697847,-84.547968,,,,,,0
3344,CedBrkN,NBD Cedar past Brookland Blvd,S CEDAR ST & E HODGE AVE,42.70015,-84.54793,,,,,,0
3345,CedPariN,NBD Cedar past Paris Ave,S CEDAR ST & DENVER ST,42.702204,-84.547965,,,,,,0
3347,CedTisdN,NBD Cedar past Tisdale Ave,S CEDAR ST & E ROCKFORD RD,42.707305,-84.547937,,,,,,0
3348,CedRileN,NBD Cedar past Riley St,S CEDAR ST & WOODROW AVE,42.7099,-84.547911,,,,,,0
3349,CedNormN,NBD Cedar before Norman St,S CEDAR ST & NORMAN ST,42.71297,-84.54736,,,,,,0
3350,CedIsbN,NBD Cedar past Isbell St,S CEDAR ST & ISBELL ST,42.7145,-84.54686,,,,,,0
3351,CedBkrN,NBD Cedar past Baker St,S CEDAR ST & BAKER ST,42.71677,-84.54613,,,,,,0
3353,KalaBeeE,EBD Kalamazoo past Beech St,E KALAMAZOO ST & BEECH ST,42.729888,-84.543684,,,,,,0
3354,KalaHosE,EBD Kalamazoo past S Hosmer St,E KALAMAZOO ST & S HOSMER ST,42.72986,-84.540048,,,,,,0
3355,KalaPenE,EBD Kalamazoo past S Pennsylvania,E KALAMAZOO ST & BINGHAM ST,42.729841,-84.537456,,,,,,0
3356,KalaHolE,EBD Kalamazoo past S Holmes St,E KALAMAZOO ST & S HOLMES ST,42.729856,-84.532432,,,,,,0
3363,AurMtHoS,SBD Aurelius past E Mt Hope Ave,AURELIUS RD & FOREST RD,42.711535,-84.523349,,,,,,0
3366,StoForS,SBD Stoneleigh past Forest Rd,,42.703638,-84.51502,,,,,,0
3367,StlFireS,SBD Stoneleigh before Fireside Dr,,42.701061,-84.515011,,,,,,0
3368,StlWabaS,SBD Stoneleigh past Wabash Rd,,42.697777,-84.515002,,,,,,0
3369,PrHoStoS,WBD Provincial House at Stoneleigh,,42.696722,-84.516858,,,,,,0
3370,PrHoCalS,WBD Provincial House past Callihan,,42.696483,-84.521315,,,,,,0
3371,AurIrviS,SBD Aurelius past Irvington Ave,,42.694552,-84.523428,,,,,,0
3372,AurLuwaS,SBD Aurelius past Luwanna Dr,,42.692914,-84.52343,,,,,,0
3373,AurLourS,SBD Aurelius past Lourdes Ct,,42.691366,-84.523444,,,,,,0
3374,AurCavaS,SBD Aurelius past Cavanaugh Rd,,42.689756,-84.523433,,,,,,0
3375,AurIrenS,SBD Aurelius past Irene St,,42.686418,-84.523462,,,,,,0
3378,DuncJolN,NBD Dunckel before Jolly,,42.682252,-84.513413,,,,,,0
3380,BJTrCoW2,EBD Beau Jardin before Belle Chase,3029 BEAU JARDIN DR & FIVE OAKS DR,42.684441,-84.509408,,,,,,0
3381,BJTrCoW4,NBD Trappers Cove past Beau Jardin,TRAPPERS COVE TRL & BEAU JARDIN DR,42.68493,-84.504731,,,,,,0
3384,JolDklW,WBD Jolly past Dunckel Rd,E JOLLY RD & DUNCKEL RD,42.682977,-84.514602,,,,,,0
3385,AurIrenN,NBD Aurelius past Irene St,AURELIUS RD & IRENE ST,42.686892,-84.523351,,,,,,0
3386,AurCavaN,NBD Aurelius past Cavanaugh Rd,AURELIUS RD & E CAVANAUGH RD,42.690355,-84.523335,,,,,,0
3387,AurLuwaN,NBD Aurelius past Luwanna Rd,AURELIUS RD & LUWANNA DR,42.693218,-84.523332,,,,,,0
3388,AurIrviN,NBD Aurelius past Irvington Ave,AURELIUS RD & GREENWICH CT,42.695062,-84.523317,,,,,,0
3389,StoPrHoN,EBD Stoneleigh past Prov. House,STONELEIGH DR & CALLIHAN CT,42.696703,-84.515544,,,,,,0
3390,StoFireN,NBD Stoneleigh past Fireside Dr,STONELEIGH DR & FIRESIDE DR,42.701454,-84.5149,,,,,,0
3391,StoTamaN,NBD Stoneleigh past Tammany Ave,STONELEIGH DR & ARBOR FOREST DR,42.703163,-84.51491,,,,,,0
3393,ForAuriN,WBD Forest Rd before Aurelius Rd,FOREST RD & AURORA DR,42.704662,-84.521846,,,,,,0
3394,AurMtHoN,NBD Aurelius past Mt Hope Ave,AURELIUS RD & E MOUNT HOPE AVE,42.712134,-84.523189,,,,,,0
3402,KalaHolW,WBD  Kalamazoo before Holmes St,E KALAMAZOO ST & S HOLMES ST,42.729963,-84.532284,,,,,,0
3405,KalaBeeW,WBD Kalamazoo before Beech St,E KALAMAZOO ST & BEECH ST,42.730004,-84.543733,,,,,,0
3417,PennAldS,SBD Pennsylvania past Alden Dr,S PENNSYLVANIA AVE & ALDEN DR,42.69975,-84.53817,,,,,,0
3444,WavOldFN,NBD Waverly past Old Farm Ln,S WAVERLY RD & OLD FARM LN,42.674296,-84.602983,,,,,,0
3445,WavHartN,NBD Waverly past Hartford Rd,S WAVERLY RD & PHOENIX DR,42.680408,-84.602984,,,,,,0
3446,JollWavN,NBD Waverly before Jolly,S WAVERLY RD,42.682752,-84.602996,,,,,,0
3447,JollWexN,EBD Jolly past Wexford Rd,W JOLLY RD & CONNERS AVE,42.683074,-84.597153,,,,,,0
3448,JollWisN,EBD Jolly before Wise Rd,W JOLLY RD & WAINWRIGHT AVE,42.683056,-84.593311,,,,,,0
3449,JollIngN,EBD Jolly past Ingham St,W JOLLY RD & INGHAM ST,42.683029,-84.588057,,,,,,0
3450,JollSidN,EBD Jolly past Sidney St,W JOLLY RD & RICHMOND ST,42.68302,-84.585197,,,,,,0
3451,JolPlGrN,EBD Jolly past Pleasant Grove Rd,W JOLLY RD & PLEASANT GROVE RD,42.683011,-84.58203,,,,,,0
3452,JolHughN,EBD Jolly past Hughes Rd,W JOLLY RD & CHRISTIANSEN RD,42.683019,-84.578642,,,,,,0
3453,JolTresN,EBD Jolly at Tressa Dr,W JOLLY RD & TRESSA DR,42.683018,-84.57275,,,,,,0
3455,MLKVincN,NBD MLK past Vincent Ct,S MARTIN LUTHER KING JR BLVD & VINCENT CT,42.687518,-84.567556,,,,,,0
3456,MLKPierN,NBD MLK past Pierce Rd,S MARTIN LUTHER KING JR BLVD & PIERCE RD,42.690292,-84.567493,,,,,,0
3457,MLKLeGrN,NBD MLK past Le Grand Dr,S MARTIN LUTHER KING JR BLVD & LEGRAND DR,42.694363,-84.567442,,,,,,0
3458,MLKHol1N,NBD MLK before Holmes Rd,S MARTIN LUTHER KING JR BLVD & WARWICK DR,42.696484,-84.567331,,,,,,0
3459,MLKHol2N,NBD MLK past Holmes Rd,S MARTIN LUTHER KING JR BLVD & SOUTHLAND ST,42.698237,-84.567257,,,,,,0
3460,MLKSoutN,NBD MLK past Southland Ave,S MARTIN LUTHER KING JR BLVD & LOA ST,42.700626,-84.56728,,,,,,0
3461,MLKDunlN,NBD MLK past Dunlap St,S Martin Luther King Jr Blvd & Dunlap St,42.70288,-84.56729,,,,,,0
3462,MLKRundN,NBD MLK past Rundle Ave,S Martin Luther King Jr Blvd & Rundle,42.70639,-84.5674,,,,,,0
3465,MLKMtHoN,NBD MLK past Mt Hope Ave,S Martin Luther King Jr Blvd & Mt Hope,42.71235,-84.5674,,,,,,0
3467,MLKMoRiN,NBD MLK before Moores River Dr,S MARTIN LUTHER KING JR BLVD & MOORES RIVER DR,42.718782,-84.567236,,,,,,0
3468,MLKOldsN,NBD MLK past Olds Ave,S MARTIN LUTHER KING JR BLVD & WILLIAM ST,42.723998,-84.567197,,,,,,0
3469,MLKHillN,NBD MLK before W Hillsdale St,S Martin Luther King Jr Blvd & Hillsdale,42.72767,-84.56724,,,,,,0
3470,MLKKalaN,NBD MLK past W Kalamazoo St,S Martin Luther King Jr Blvd & Kalamazoo,42.73038,-84.56679,,,,,,0
3472,MLKKalaS,SBD MLK past Kalamazoo St,S MARTIN LUTHER KING JR BLVD & KINGSLEY CT,42.729036,-84.567858,,,,,,0
3474,MLKWillS,SBD MLK before William St,S MARTIN LUTHER KING JR BLVD & W MAIN ST,42.724733,-84.569837,,,,,,0
3476,MLKPulaS,SBD MLK past Pulaski St,S MARTIN LUTHER KING JR BLVD & BRAMAN ST,42.717798,-84.567838,,,,,,0
3479,MLKMtHoS,S MLK past Mt Hope Ave,S MARTIN LUTHER KING JR BLVD & W MOUNT HOPE AVE,42.711686,-84.56789,,,,,,0
3481,MLKGordS,SBD MLK past Gordon Ave,S MARTIN LUTHER KING JR BLVD & GORDON AVE,42.708501,-84.567891,,,,,,0
3483,MLKRundS,SBD MLK past Rundle Ave,S MARTIN LUTHER KING JR BLVD & VICTOR AVE,42.705628,-84.567708,,,,,,0
3484,MLKDunlS,SBD MLK before Dunlap St,S Martin Luther King Jr Blvd & Dunlap St,42.70269,-84.56746,,,,,,0
3485,MLKSoutS,SBD MLK at Southland Ave,S MARTIN LUTHER KING JR BLVD & W HOLMES RD,42.699946,-84.567416,,,,,,0
3486,MLKHolmS,SBD MLK past Holmes Rd,S MARTIN LUTHER KING JR BLVD & WARWICK DR,42.697074,-84.567441,,,,,,0
3487,MLKWarwS,SBD MLK past Warwick Dr,S MARTIN LUTHER KING JR BLVD & WARWICK DR,42.694676,-84.56759,,,,,,0
3489,MLKMaryS,SBD MLK past Mary Ave,S MARTIN LUTHER KING JR BLVD & PIERCE RD,42.690668,-84.56764,,,,,,0
3490,MLKReoS,SBD MLK past Reo Rd,S MARTIN LUTHER KING JR BLVD & VINCENT CT,42.687196,-84.567716,,,,,,0
3491,MLKBriaS,SBD MLK past Briarfield Dr,S MARTIN LUTHER KING JR BLVD & N BRIARFIELD DR,42.684556,-84.56779,,,,,,0
3492,JollMLKS,WBD Jolly past MLK Blvd,W JOLLY RD & S MARTIN LUTHER KING JR BLVD,42.683134,-84.569338,,,,,,0
3493,JollTreS,WBD Jolly past Tressa Dr,W JOLLY RD & TRESSA DR,42.683135,-84.573069,,,,,,0
3494,JollHugW,WBD Jolly before Hughes Rd,W JOLLY RD & CHRISTIANSEN RD,42.683127,-84.578446,,,,,,0
3495,JollRicS,WBD Jolly before Richmond St,W JOLLY RD & PLEASANT GROVE RD,42.683127,-84.583405,,,,,,0
3496,JollSidW,WBD Jolly past Sidney St,W JOLLY RD & SIDNEY ST,42.683136,-84.586584,,,,,,0
3497,JollIngS,WBD Jolly past Ingham St,W JOLLY RD & INGHAM ST,42.683145,-84.588831,,,,,,0
3498,JollWaiS,WBD Jolly past Wainwright Ave,W JOLLY RD & WAINWRIGHT AVE,42.683164,-84.593041,,,,,,0
3499,JollConS,WBD Jolly past Conners Ave,W JOLLY RD & CONNERS AVE,42.683181,-84.598166,,,,,,0
3501,WavJollS,SBD Waverly past Jolly Rd,S WAVERLY RD & HARTFORD RD,42.682627,-84.603144,,,,,,0
3502,WavHartS,SBD Waverly past Hartford Rd,S WAVERLY RD & PHOENIX DR,42.680291,-84.603131,,,,,,0
3520,PennMilN,NBD Pennsylvania past  Miller,S PENNSYLVANIA AVE & ANDREW JACKSON DR,42.670038,-84.538057,,,,,,0
3521,PennAnJN,NBD Pennsylvania past And. Jack.,S PENNSYLVANIA AVE & ANDREW JACKSON DR,42.67133,-84.53808,,,,,,0
3522,PennKeyN,NBD Pennsylvania past Keystone Av,S PENNSYLVANIA AVE & DENNIS ST,42.67558,-84.53807,,,,,,0
3523,PennDe2N,NBD  Pennsylvania past Dennis St,S PENNSYLVANIA AVE & SHIRLEY ST,42.67946,-84.53809,,,,,,0
3524,PennWilN,NBD Pennsylvania past Willema St,S PENNSYLVANIA AVE & SIMS CT,42.68129,-84.5381,,,,,,0
3525,PennJolN,NBD Pennsylvania past Jolly Rd,S PENNSYLVANIA AVE & E JOLLY RD,42.68328,-84.53808,,,,,,0
3526,PennKenN,NBD Pennsylvania past Kendon Dr,S PENNSYLVANIA AVE & KENDON DR,42.68659,-84.53804,,,,,,0
3527,PennSamN,NBD Pennsylvania past Samantha St,S PENNSYLVANIA AVE & E CAVANAUGH RD,42.68846,-84.538,,,,,,0
3528,PennCavN,NBD Pennsylvania past Cavanaugh,S PENNSYLVANIA AVE & E CAVANAUGH RD,42.69039,-84.53798,,,,,,0
3533,PennAldN,NBD Pennsylvania before Alden Sq,S PENNSYLVANIA AVE & S DEXTER DR,42.6988,-84.538047,,,,,,0
3534,PennHeCN,NBD Penn past Health Care Dr.,S PENNSYLVANIA AVE & HEALTH CARE DR,42.70486,-84.53805,,,,,,0
3535,PennPacN,NBD Pennsylvania  past Pacific Av,S PENNSYLVANIA AVE & PACIFIC AVE,42.7086,-84.53804,,,,,,0
3536,PennKe1N,NBD Pennsylvania past Kenwood Av,S PENNSYLVANIA AVE & KENWOOD AVE,42.71036,-84.53803,,,,,,0
3538,PennParN,NBD Pennsylvania past Parkdale Ave,S PENNSYLVANIA AVE & BAKER ST,42.71526,-84.53801,,,,,,0
3539,PennLinN,NBD Pennsylvania before Lindbergh,S PENNSYLVANIA AVE & LINDBERGH DR,42.71747,-84.538,,,,,,0
3540,PennHacN,NBD Pennsylvania before Haco Dr,S PENNSYLVANIA AVE & CANADIAN NATIONAL RAILWAY,42.721099,-84.537942,,,,,,0
3541,PennHazN,NBD Pennsylvania past Hazel St,S PENNSYLVANIA AVE & CLIMAX ST,42.72378,-84.53803,,,,,,0
3542,PennHeaN,NBD Pennsylvania past Heald Pl,S PENNSYLVANIA AVE & HEALD PL,42.72746,-84.53793,,,,,,0
3543,PennKalN,NBD Pennsylvania past Kalamazoo,S PENNSYLVANIA AVE & E KALAMAZOO ST,42.73038,-84.53789,,,,,,0
3544,PennEurN,NBD Pennsylvania past Eureka St,S PENNSYLVANIA AVE & E MICHIGAN AVE,42.73265,-84.53785,,,,,,0
3548,PennSagN,NBD Pennsylvania past Saginaw St,N PENNSYLVANIA AVE & E SAGINAW ST,42.74125,-84.537704,,,,,,0
3549,PennOakN,NBD Pennsylvania past Oakland Ave,N PENNSYLVANIA AVE & CADY CT,42.743925,-84.537727,,,,,,0
3550,PennPorN,NBD Pennsylvania past Porter St,N PENNSYLVANIA AVE & PERSONS CT,42.745778,-84.537713,,,,,,0
3551,GrRivPeE,EBD Pennsylvania before Grand River,,42.747147,-84.537687,,,,,,0
3552,VermGrRN,NBD Vermont past Grand River Av,VERMONT AVE & E GRAND RIVER AVE,42.74761,-84.534517,,,,,,0
3553,VermOakN,NBD Vermont before Oak St,VERMONT AVE & E GRAND RIVER AVE,42.75008,-84.534527,,,,,,0
3561,EastOrGN,NBD N East past Orchard Glen,N EAST ST & E FREDERICK AVE,42.767086,-84.542672,,,,,,0
3562,SherCedN,WBD Sheridan past Cedar St,E SHERIDAN RD & CEDAR ST,42.769728,-84.547623,,,,,,0
3564,SherCreN,WBD Sheridan past Creston Ave,E SHERIDAN RD & CRESTON AVE,42.769748,-84.55249,,,,,,0
3565,TurnSheN,SBD Turner past Sheridan Rd,TURNER ST & E SHERIDAN RD,42.769364,-84.555834,,,,,,0
3566,TurnFreN,SBD Turner past Frederick St,TURNER ST & W FREDERICK AVE,42.76769,-84.555835,,,,,,0
3567,TurnPauN,SBD Turner before Paulson St,TURNER ST & CARRIER ST,42.764916,-84.555836,,,,,,0
3568,TurnFilN,NBD Turner before Filley,TURNER ST & W JACKSON ST,42.76216,-84.555531,,,,,,0
3569,TurnRanN,SBD Turner past Randolph St,TURNER ST & W RANDOLPH ST,42.759896,-84.554365,,,,,,0
3573,GierEasS,EBD Gier past East St,E GIER ST & 7TH AVE,42.758782,-84.542408,,,,,,0
3575,GierEigS,EBS Gier past Eighth Ave,E GIER ST & 8TH AVE,42.75878,-84.538144,,,,,,0
3577,VermNorS,SBD Vermont past North St,VERMONT AVE & OAK ST,42.751306,-84.534673,,,,,,0
3578,VermTafS,SBD Vermont Ave before Taft St,VERMONT AVE & TAFT ST,42.748801,-84.534688,,,,,,0
3579,GrRivMaS,WBD Grand River past Massachusetts,E GRAND RIVER AVE & TAFT ST,42.747468,-84.536409,,,,,,0
3580,PennGrRS,SBD Pennsylvania past Grand River,N PENNSYLVANIA AVE & EASTWOOD TOWNE CENTER,42.746816,-84.537847,,,,,,0
3583,OaklBalS,WBD Oakland past Ballard St,E OAKLAND AVE & PRUDDEN ST,42.74372,-84.540098,,,,,,0
3584,CedOaklS,SBD Cedar past Oakland Ave,N CEDAR ST & MONROE ST,42.743329,-84.546561,,,,,,0
3585,CedSagiS,SBD Cedar before E Saginaw St,N CEDAR ST & MONROE ST,42.74179,-84.546574,,,,,,0
3586,ShiaMLKW,WBD Shiawassee past MLK Blvd,W SHIAWASSEE ST & N MARTIN LUTHER KING JR BLVD,42.73743,-84.567547,,,,,,0
3587,ShiaCarS,WBD Shiawassee past Carey St,W SHIAWASSEE ST & HOWE ST,42.737439,-84.570238,,,,,,0
3588,ShiaWesS,WBD Shiawassee past Westmoreland,W SHIAWASSEE ST & WESTMORELAND AVE,42.737422,-84.571884,,,,,,0
3590,JeniOttS,SBD Jenison past Ottawa St,N JENISON AVE & W OTTAWA ST,42.734558,-84.572819,,,,,,0
3591,MichJenS,WBD Michigan past Jenison Ave,W MICHIGAN AVE & S JENISON AVE,42.733843,-84.573654,,,,,,0
3592,McPhMicS,SBD McPherson past Michigan,MCPHERSON AVE & S JENISON AVE,42.732322,-84.575055,,,,,,0
3593,McPhKalS,SBD McPherson past Kalamazoo St,MCPHERSON AVE & W KALAMAZOO ST,42.730407,-84.575842,,,,,,0
3594,McPhLenS,SBD McPherson past Lenawee St,MCPHERSON AVE & W KALAMAZOO ST,42.728761,-84.577193,,,,,,0
3596,EverMalS,SBD Everett past Malcolm X,EVERETT DR & WILLIAM ST,42.725289,-84.577244,,,,,,0
3604,VictPlGS,WBD Victor past Pleasant Grove Rd,VICTOR AVE & HAMPDEN DR,42.7053,-84.583106,,,,,,0
3605,VictVikS,WBD Victor  before Viking St,VICTOR AVE & HAMPDEN DR,42.705309,-84.58625,,,,,,0
3606,VictDerS,WBD Victor before Deerfield Ave,VICTOR AVE & BEDFORD ST,42.705318,-84.591395,,,,,,0
3607,DeerBriS,SBD Deerfield past Brisbane Dr,S DEERFIELD AVE & FAUNA AVE,42.703761,-84.591984,,,,,,0
3608,DeerDunS,SBD Deerfield past Dunlap St,S DEERFIELD AVE & HERRICK DR,42.701623,-84.592009,,,,,,0
3609,DeerHolN,SBD Deerfield before Holmes Rd,,42.697999,-84.591972,,,,,,0
3613,WavHuntN,NBD Waverly at Hunters Ridge Dr,,42.69935,-84.60301,,,,,,0
3614,WavSandN,NBD Waverly before Sandhurst Dr,S WAVERLY RD & SANDHURST DR,42.702813,-84.603035,,,,,,0
3615,WavGlasN,NBD Waverly past Glasgow Dr,S WAVERLY RD & GLASGOW DR,42.70649,-84.602986,,,,,,0
3616,MoRiWavS,EBD Moores River past Waverly Rd,MOORES RIVER DR & HERRICK DR,42.708951,-84.601685,,,,,,0
3617,MtHoMedS,EBD Mt Hope after Medbury Ave,W MOUNT HOPE AVE & MEDBURN AVE,42.712065,-84.595975,,,,,,0
3618,MtHoBedS,EBD W Mt Hope past Bedford Dr,W MOUNT HOPE AVE & LEWTON PL,42.712056,-84.590375,,,,,,0
3619,MtHoEdwS,EBD Mt Hope past Edwin Pl,W MOUNT HOPE AVE & EDWIN PL,42.712056,-84.586875,,,,,,0
3621,PlGrCooS,SBD Pleasant Grove past Cooper,PLEASANT GROVE RD & COOPER AVE,42.709469,-84.582295,,,,,,0
3622,PlGrColS,SBD Pleasant Grove past Colonial,PLEASANT GROVE RD & COLONIAL PLZ,42.707483,-84.582295,,,,,,0
3636,EverMalN,NBD Everett before Malcolm X,EVERETT DR & WILLIAM ST,42.725459,-84.577096,,,,,,0
3638,McPhLenN,NBD McPherson past Lenawee St,MCPHERSON AVE & W LENAWEE ST,42.729181,-84.576653,,,,,,0
3639,McPhKalN,NBD McPherson past Kalamazoo St,MCPHERSON AVE & W KALAMAZOO ST,42.730863,-84.575387,,,,,,0
3641,MichMcPN,EBD Michigan past McPherson Ave,W MICHIGAN AVE & MCPHERSON AVE,42.733744,-84.574096,,,,,,0
3642,JeniOttN,NBD Jenison past Ottawa St,N JENISON AVE & W IONIA ST,42.735059,-84.572659,,,,,,0
3643,OakWashW,WBD Oakland past Washington Av,W OAKLAND AVE & N CAPITOL AVE,42.743564,-84.552482,,,,,,0
3644,OakWalnW,WBD Oakland past Walnut St,W OAKLAND AVE & N WALNUT ST,42.743592,-84.557212,,,,,,0
3645,OakPineW,WBD Oakland past Pine St,W OAKLAND AVE & N WALNUT ST,42.743602,-84.560235,,,,,,0
3646,OakWiscW,WBD Oakland past Wisconsin Ave,W OAKLAND AVE & EDGEWOOD CT,42.742977,-84.56327,,,,,,0
3647,OakMLKW,WBD Oakland past MLK Blvd,W OAKLAND AVE & N MARTIN LUTHER KING JR BLVD,42.742996,-84.567668,,,,,,0
3648,OakHoltW,WBD Oakland past Holten St,W OAKLAND AVE & CLAYTON ST,42.743023,-84.570027,,,,,,0
3649,OakJeniW,WBD Oakland past Jenison Ave,W OAKLAND AVE & N JENISON AVE,42.743033,-84.573246,,,,,,0
3651,VerlGenS,SBD Verlinden past Genesee Dr,N VERLINDEN AVE & N GENESEE ST,42.740223,-84.577227,,,,,,0
3653,VerShiaS,SBD Verlinden past Shiawassee St,N VERLINDEN AVE & W SHIAWASSEE ST,42.73733,-84.577234,,,,,,0
3655,VerMichS,SBD Verlinden before Michigan Ave,N VERLINDEN AVE & INVERNESS AVE,42.734488,-84.577204,,,,,,0
3656,MichClaW,WBD Michigan before Clare St,W MICHIGAN AVE & N VERLINDEN AVE,42.733915,-84.58159,,,,,,0
3657,MichHazW,WBD Michigan past Haze St,W MICHIGAN AVE & HAZE ST,42.733916,-84.584452,,,,,,0
3658,MichAlgW,WBD Michigan past Alger St,W MICHIGAN AVE & S ROSEMARY ST,42.733916,-84.586995,,,,,,0
3660,MichBryW,WBD Michigan past Brynford Ave,W MICHIGAN AVE & N DEERFIELD AVE,42.733916,-84.59138,,,,,,0
3661,MichBonW,WBD Michigan past Bon Air Rd,W MICHIGAN AVE & N DEERFIELD AVE,42.733925,-84.594771,,,,,,0
3662,MichStoW,WBD Michigan at Stoner Rd,W MICHIGAN AVE & STONER RD,42.733925,-84.597965,,,,,,0
3663,WavMichW,SBD Waverly past Michigan Ave,S WAVERLY RD & OTIS AVE,42.733227,-84.603001,,,,,,0
3665,WavStJoW,SBD Waverly before St Joseph St,S WAVERLY RD & BLANCHE AVE,42.727187,-84.603074,,,,,,0
3666,WavStJoN,NBD Waverly past St Joseph St,S WAVERLY RD & BLANCHE AVE,42.727416,-84.60284,,,,,,0
3667,WavKalaN,NBD Waverly past Kalamazoo St,S WAVERLY RD & W KALAMAZOO ST,42.730847,-84.602829,,,,,,0
3668,WavMichN,NBD Waverly before W Michigan Ave,S WAVERLY RD & OTIS AVE,42.732565,-84.602817,,,,,,0
3669,MichWavE,EBD Michigan past Waverly Rd,W MICHIGAN AVE & CLEMENT RD,42.733827,-84.60219,,,,,,0
3670,MichStoE,EBD Michigan past Stoner Rd,W MICHIGAN AVE & STONER RD,42.733791,-84.597621,,,,,,0
3671,MichBonE,EBD Michigan past Bon Air Rd,W MICHIGAN AVE & BON AIR RD,42.733764,-84.593972,,,,,,0
3672,MichBryE,EBD Michigan at Brynford Ave,W MICHIGAN AVE & N DEERFIELD AVE,42.733782,-84.591159,,,,,,0
3673,MichRosE,EBD Michigan past Rosemary Ave,W MICHIGAN AVE & ALGER ST,42.733791,-84.587105,,,,,,0
3674,MichHatE,EBD Michigan past Hathaway St,W MICHIGAN AVE & HATHAWAY ST,42.733781,-84.584833,,,,,,0
3675,MichClaE,EBD Michigan past Clare St,W MICHIGAN AVE & N VERLINDEN AVE,42.733781,-84.581332,,,,,,0
3676,VerlInvN,NBD Verlinden past Inverness Av,N VERLINDEN AVE & FORBES ST,42.735024,-84.577032,,,,,,0
3677,VerShiaN,NBD Verlinden past Shiawassee St,N VERLINDEN AVE & S GENESEE DR,42.737344,-84.577014,,,,,,0
3679,VerlGenN,NBD Verlinden past Genesee Dr,N VERLINDEN AVE & N GENESEE ST,42.740384,-84.577055,,,,,,0
3680,SagCawoE,EBD Saginaw past Cawood St,W SAGINAW ST & CAWOOD ST,42.740957,-84.575052,,,,,,0
3681,SagWestE,EBD Saginaw before Westmoreland,W SAGINAW ST & WESTMORELAND AVE,42.740947,-84.572214,,,,,,0
3685,SagLarcE,EBD Saginaw before Larch Street,E SAGINAW ST & N CEDAR ST,42.740814,-84.545002,,,,,,0
3687,SagClarE,EBD Saginaw before Clark St,E SAGINAW ST & WORTHINGTON DR,42.740853,-84.532213,,,,,,0
3688,SagMaryE,EBD Saginaw past Maryland Ave,E SAGINAW ST & MARYLAND AVE,42.740843,-84.529264,,,,,,0
3690,SagClemE,EBD Saginaw before Clemens Ave,E SAGINAW ST & N CLEMENS AVE,42.740876,-84.52365,,,,,,0
3691,SagMagnE,EBD Saginaw before Magnolia Ave,E SAGINAW ST & N MAGNOLIA AVE,42.740874,-84.520542,,,,,,0
3702,HopkCheE,WBD Hopkins past Chester Rd,HOPKINS AVE & KIMBERLY DR,42.748457,-84.511675,,,,,,0
3703,HopkDowE,WBD Hopkins past Downer St,HOPKINS AVE & WEBER DR,42.748477,-84.515434,,,,,,0
3704,HayHopkE,NBD Hayford past Hopkins Ave,N HAYFORD AVE & HOPKINS AVE,42.748712,-84.518899,,,,,,0
3705,HayRidgE,NBD Hayford past Ridgeline Dr,N HAYFORD AVE & RIDGELINE DR,42.752013,-84.518232,,,,,,0
3707,HayGroeE,NBD Hayford past Groesbeck Ave,N HAYFORD AVE & RIDGELINE DR,42.753928,-84.517677,,,,,,0
3708,TulaHayE,WBDTulane past Hayford Ave,TULANE DR & N HAYFORD AVE,42.755852,-84.51765,,,,,,0
3709,TulNortE,WBD Tulane before Northampton Way,TULANE DR & NORTHAMPTON WAY,42.756892,-84.521544,,,,,,0
3711,WoodNorE,NBD Wood past Northampton Way,WOOD ST & PEPPERTREE LN,42.757278,-84.523006,,,,,,0
3713,WoodLkLN,NBD Wood before Lake Lansing Rd,WOOD ST & LAKE LANSING RD,42.7599,-84.522991,,,,,,0
3720,GRivDelS,EBD Grand River past Delta St,N GRAND RIVER AVE & DELTA ST,42.764349,-84.582284,,,,,,0
3725,WoodLkLW,SBD Wood past Lake Lansing  Rd,WOOD ST & LAKE LANSING RD,42.760016,-84.523138,,,,,,0
3726,WoodBarW,SBD Wood past Barritt St,WOOD ST & PEPPERTREE LN,42.757761,-84.523153,,,,,,0
3727,TulNortW,EBD Tulane past Northampton Way,TULANE DR & NORTHAMPTON WAY,42.756686,-84.521544,,,,,,0
3728,TulHayfW,EBD Tulane before Hayford Ave,TULANE DR & NORTHAMPTON WAY,42.755754,-84.519076,,,,,,0
3729,HayTulaW,SBD Hayford after Tulane Dr,N HAYFORD AVE & NORTHAMPTON WAY,42.755378,-84.517429,,,,,,0
3730,HayGroeW,SBD Hayford past Groesbeck Ave,N HAYFORD AVE & NORTHAMPTON WAY,42.753427,-84.517849,,,,,,0
3731,HayRidgW,SBD Hayford past Ridgeline Dr,N HAYFORD AVE & RIDGELINE DR,42.75162,-84.518527,,,,,,0
3732,HopkHayW,EBD Hopkins past Hayford,HOPKINS AVE & N HAYFORD AVE,42.74838,-84.518347,,,,,,0
3733,HopkDowW,EBD Hopkins past Downer Ave,HOPKINS AVE & BLAKE AVE,42.74836,-84.515078,,,,,,0
3737,GRivMerW,WBD Grand River before Merrill St,E GRAND RIVER AVE & WOODRUFF AVE,42.743187,-84.51259,,,,,,0
3738,GRivDowW,WBD Grand River past Downer Ave,E GRAND RIVER AVE & N FRANCIS AVE,42.743367,-84.515453,,,,,,0
3739,GRivFosW,WBD Grand River past Foster Av,E GRAND RIVER AVE & N FOSTER AVE,42.74336,-84.518364,,,,,,0
3740,OaklJunW,WBD Oakland past June St,E OAKLAND AVE & MARYLAND AVE,42.743384,-84.528562,,,,,,0
3741,OaklMahW,WBD Oakland past Mahlon St,E OAKLAND AVE & MAHLON ST,42.743573,-84.53108,,,,,,0
3742,OaklCleW,WBD Oakland past Cleveland St,E OAKLAND AVE & FARRAND ST,42.743628,-84.533992,,,,,,0
3743,OaklLarW,WBD Oakland past Larch St,E OAKLAND AVE & N PENNSYLVANIA AVE,42.743973,-84.545061,,,,,,0
3746,WashOakN,NBD Washington past Oakland Av,N WASHINGTON AVE & W KILBORN ST,42.744172,-84.552064,,,,,,0
3747,WashMapN,NBD Washington past Maple St,N WASHINGTON AVE & E GRAND RIVER AVE,42.746284,-84.552051,,,,,,0
3748,GRivTuN,EBD Grand River before Turner,E GRAND RIVER AVE & CENTER ST,42.747375,-84.550489,,,,,,0
3750,TurnBeaN,NBD Turner before Beaver St,TURNER ST & CLINTON ST,42.750194,-84.549505,,,,,,0
3752,NortCapN,WBD North before Capitol Ave,W NORTH ST & N CAPITOL AVE,42.752253,-84.55357,,,,,,0
3753,GRivSeaN,WBD Grand River past Seager St,N GRAND RIVER AVE & SEAGAR ST,42.753856,-84.556371,,,,,,0
3754,GRivSpiN,WBD Grand River before Spikes Ln,N GRAND RIVER AVE & SADIE CT,42.755521,-84.55927,,,,,,0
3755,GRivGRAN,WBD Grand Riv past Gr. Riv. Access,N GRAND RIVER AVE & GRAND RIVER ACCESS,42.757527,-84.562784,,,,,,0
3756,GRivMLKN,WBD Grand River before MLK Access,N GRAND RIVER AVE & COOLIDGE ST,42.759022,-84.565351,,,,,,0
3757,GRivHolN,WBD Grand River before Hollywood St,N GRAND RIVER AVE & HOLLYWOOD ST,42.760553,-84.568742,,,,,,0
3758,GRivCynN,WBD Grand River past Cynwood St,N GRAND RIVER AVE & CYNWOOD ST,42.761332,-84.571261,,,,,,0
3759,GRivTecN,WBD Grand River past Tecumseh Av,N GRAND RIVER AVE & TECUMSEH AVE,42.762174,-84.574186,,,,,,0
3760,GRivWesN,WBD Grand River past Westwood Av,N GRAND RIVER AVE & TECUMSEH AVE,42.76297,-84.577086,,,,,,0
3767,WavDeRiN,NBD Waverly past Delta River Dr,N WAVERLY RD & STANDARD DR,42.764484,-84.602697,,,,,,0
3768,WavWilsN,NBD Waverly past Wilson Ave,N WAVERLY RD & STANDARD DR,42.765817,-84.602685,,,,,,0
3769,WavFranN,NBD Waverly past Franette Rd,N WAVERLY RD & FRANETTE RD,42.767652,-84.601739,,,,,,0
3770,GRivWavE,EBD Grand River past Waverly,N GRAND RIVER AVE & N WAVERLY RD,42.769164,-84.599539,,,,,,0
3771,GRivSheS,EBD Grand River before Sheffer Av,N GRAND RIVER AVE & SHEFFER AVE,42.768305,-84.596442,,,,,,0
3772,GRivYouS,EBD Grand River past Young Ave,N GRAND RIVER AVE & YOUNG AVE,42.767553,-84.593738,,,,,,0
3777,GRivGraS,EBD Grand River past Grandell Av,N GRAND RIVER AVE & BENTON BLVD,42.765495,-84.586302,,,,,,0
3778,GRivBenS,EBD Grand River past Benton Blvd,N GRAND RIVER AVE & BENTON BLVD,42.764725,-84.583611,,,,,,0
3779,GRivDeRS,EBD Grand River past Delta River,N GRAND RIVER AVE & DELTA ST,42.763364,-84.578892,,,,,,0
3780,GRivEdgS,EBD Grand River past Edgebrook,N GRAND RIVER AVE & EDGEBROOK DR,42.762773,-84.576729,,,,,,0
3781,GRivTecS,EBD Grand Riv. past Tecumseh River,N GRAND RIVER AVE & STOCKMAN CT,42.761994,-84.573928,,,,,,0
3782,GRivCynS,EBD Grand River before Cynwood St,N GRAND RIVER AVE & MILDRED ST,42.761108,-84.570843,,,,,,0
3783,GRivHolS,EBD Grand River past Hollywood,N GRAND RIVER AVE & HOLLYWOOD ST,42.760517,-84.568927,,,,,,0
3785,GRivCooS,EBD Grand River past Coolidge St,N GRAND RIVER AVE & COOLIDGE ST,42.758162,-84.564074,,,,,,0
3786,GRivCulS,EBD Grand River past Culver St,N GRAND RIVER AVE & RAYMOND DR,42.756694,-84.561469,,,,,,0
3787,GRivSadS,EBD Grand River past Sadie Ct,N GRAND RIVER AVE & SADIE CT,42.755405,-84.55927,,,,,,0
3788,GRivSeaS,EBD Grand River before Seager St,N GRAND RIVER AVE & SEAGAR ST,42.753561,-84.556039,,,,,,0
3789,NorWashS,EBD North before Washington Ave,W NORTH ST & N CAPITOL AVE,42.751985,-84.553313,,,,,,0
3792,GRivWasW,WBD Grand River past Washington,W GRAND RIVER AVE & E GRAND RIVER AVE,42.747484,-84.553106,,,,,,0
3794,HolmMalS,SBD Holmes past Malcolm X,S HOLMES ST & CLIMAX ST,42.724953,-84.533137,,,,,,0
3795,HolmHazS,SBD Holmes past Hazel St,S HOLMES ST & WALSH ST,42.722939,-84.533151,,,,,,0
3796,PerkHolS,EBD Perkins past Holmes St,PERKINS ST & BENSCH ST,42.720998,-84.532747,,,,,,0
3798,PerkDakS,EBD Perkins past Dakin St,PERKINS ST & DAKIN ST,42.720997,-84.530733,,,,,,0
3799,PerkLatS,EBD Perkins past Lathrop St,PERKINS ST & ALLEN ST,42.721031,-84.528522,,,,,,0
3801,RegPerkS,NBD Regent past Perkins St,REGENT ST & WALSH ST,42.721342,-84.523769,,,,,,0
3802,RegMalcS,NBD Regent before Malcolm X St,REGENT ST & WALSH ST,42.723427,-84.52373,,,,,,0
3804,KalaMagE,EBD Kalamazoo past S Magnolia Av,E KALAMAZOO ST & S HAYFORD AVE,42.72993,-84.519731,,,,,,0
3805,KalaFosE,EBD Kalamazoo past Foster,E KALAMAZOO ST & S FOSTER AVE,42.729928,-84.517286,,,,,,0
3821,CoolWooW,SBD Coolidge past Woodbrook Dr,COOLIDGE RD & FARWOOD DR,42.75187,-84.503561,,,,,,0
3831,KalaFraW,WBD Kalamazoo past S Francis Ave,E KALAMAZOO ST & S FRANCIS AVE,42.730035,-84.516819,,,,,,0
3833,PerkRegN,WBD Perkins past Regent St,PERKINS ST & REGENT ST,42.721145,-84.524088,,,,,,0
3834,PerkSheN,WBD Perkins past Shepard St,PERKINS ST & SHEPARD ST,42.721146,-84.526336,,,,,,0
3835,PerkLatN,WBD Perkins past Lathrop St,PERKINS ST & MCCULLOUGH ST,42.72113,-84.52878,,,,,,0
3836,PerkDakN,WBD Perkins past Dakin St,PERKINS ST & DAKIN ST,42.721095,-84.531015,,,,,,0
3838,HolmWalN,NBD Holmes past Walsh St,S HOLMES ST & E HAZEL ST,42.722689,-84.533004,,,,,,0
3840,AbbLibN,NBD Abbot past Library Ln,941 ABBOT RD & NORTHLAWN ST,42.743541,-84.483669,,,,,,0
3841,AbbWhtN,NBD Abbot past Whitehills Dr,1135 ABBOT RD & E SAGINAW ST,42.745796,-84.48364,,,,,,0
3843,AbbLoreN,NBD Abbot before Loree Dr,1600 ABBOT RD & E SAGINAW ST,42.74925,-84.483647,,,,,,0
3844,AbbWoodN,NBD Abbot past Woodland Pass,ABBOT RD & ABBOTT WOODS DR,42.751263,-84.483644,,,,,,0
3845,AbbRampN,NBD Abbot Rampart Way,ABBOT RD & TAYLOR DR,42.753912,-84.483652,,,,,,0
3846,AbbTayN,NBD Abbot past Taylor Dr,ABBOT RD & ASHER CT,42.755487,-84.483662,,,,,,0
3857,BiRoHagW,WBD Birch Row past Hagadorn Rd,BIRCH ROW DR & COACH HOUSE ST,42.758352,-84.463799,,,,,,0
3864,AbbTayS,SBD Abbot past Taylor Dr,ABBOT RD & TAYLOR DR,42.75504,-84.483797,,,,,,0
3865,AbbRampS,SBD Abbot past Rampart Way,ABBOT RD & RAMPART WAY,42.753465,-84.4838,,,,,,0
3866,AbbAbbWS,SBD Abbot before Abbott Woods Dr,ABBOT RD & ABBOTT WOODS DR,42.751272,-84.483791,,,,,,0
3867,AbbLoreS,SBD Abbot past Loree Dr,ABBOT RD & ABBOTT WOODS DR,42.749232,-84.483795,,,,,,0
3868,AbbSagiS,SBD Abbot past Saginaw St,1145 ABBOT RD & W SAGINAW ST,42.746002,-84.483775,,,,,,0
3869,AbbNoLwS,SBD Abbot past Northlawn St,ABBOT RD & NORTHLAWN ST,42.743657,-84.483816,,,,,,0
3870,AbbCentS,SBD Abbot past Centerlawn St,ABBOT RD & CENTERLAWN ST,42.741626,-84.483807,,,,,,0
3872,HarHuntN,NBD Harrison Rd at Huntington,342 N HARRISON RD & HUNTINGTON RD,42.736909,-84.493434,,,,,,0
3885,LkLaCooS,EBD Lake Lansing Rd past Coolidge,W LAKE LANSING RD & COOLIDGE RD,42.76071,-84.502689,,,,,,0
3887,LkLaMarS,EBD Lake Lansing Rd at Marfitt Rd,W LAKE LANSING RD & MARFITT RD,42.760743,-84.498486,,,,,,0
3888,LkLaRegS,EBD Lk. Lansing Rd past Regency Dr,W LAKE LANSING RD & BURNT TREE LN,42.760087,-84.49464,,,,,,0
3889,HarTarlS,SBD Harrison Rd past Tarleton Ave,N HARRISON RD & W LAKE LANSING RD,42.759468,-84.493621,,,,,,0
3890,HarCrowS,SBD Harrison past Crown Blvd,N HARRISON RD & CROWN BLVD,42.755075,-84.49364,,,,,,0
3893,HarWoodS,SBD Harrison past Woodingham Dr,N HARRISON RD & WOODINGHAM DR,42.748256,-84.493687,,,,,,0
3894,HarLongS,SBD Harrison past Longfellow Dr,N HARRISON RD & W SAGINAW ST,42.746475,-84.493665,,,,,,0
3895,HarNortS,SBD Harrison before Northlawn St,N HARRISON RD & NORTHLAWN ST,42.743155,-84.493719,,,,,,0
3896,HarWildS,SBD Harrison before Wildwood Dr,N HARRISON RD & SOUTHLAWN AVE,42.740605,-84.493686,,,,,,0
3899,HarLilaS,SBD Harrison before Lilac Ave,S HARRISON RD & LILAC AVE,42.725017,-84.493967,,,,,,0
3902,HarTrowS,SBD Harrison before Trowbridge Rd,S HARRISON RD & HARRISON RD,42.720418,-84.493974,,,,,,0
3924,HagRidgN,NBD Hagadorn before Ridgewood Dr,N HAGADORN RD & WOODSIDE DR,42.744406,-84.462179,,,,,,0
3933,HagBur2S,SBD Hagadorn past Burcham Dr,N HAGADORN RD & MOUNT VERNON AVE,42.740478,-84.462297,,,,,,0
3937,HagOlCaS,SBD Hagadorn past Old Canton Ln,N HAGADORN RD & S HAGADORN RD,42.730841,-84.462193,,,,,,0
3944,MarTihaN,NBD Marsh before Tihart Rd,MARSH RD & 5TH AVE,42.732747,-84.410854,,,,,,0
3945,MarHuntN,NBD Marsh past Huntsville Rd,MARSH RD & HUNTSVILLE DR,42.736493,-84.409001,,,,,,0
3946,MarRollN,NBD Marsh past Rolling Hills Dr,MARSH RD & HUNTSVILLE DR,42.738988,-84.407852,,,,,,0
3947,MarFranN,NBD Marsh past Franklin St,MARSH RD & FRANKLIN ST,42.743069,-84.408099,,,,,,0
3948,MarHaslN,NBD Marsh past Haslett Rd,MARSH RD & HASLETT RD,42.747857,-84.408344,,,,,,0
3949,MarLakeN,NBD Marsh past Lake Rd,5859 MARSH RD & LAKE CT,42.749817,-84.4084,,,,,,0
3950,MarLkLaN,NBD Marsh before Lake Lansing Rd,MARSH RD & LAKE DR,42.752197,-84.408492,,,,,,0
3961,LkLaBoiW,WBD Lake Lansing past Bois Isle,LAKE LANSING RD & LAC DU MONT DR,42.755509,-84.421985,,,,,,0
3964,LkLaBayE,EBD Lake Lansing past Bayonne Ave,LAKE LANSING RD & BAYONNE AVE,42.753882,-84.416585,,,,,,0
3965,LkLaCypE,EBD Lake Lansing past Cypress St,LAKE LANSING RD & HARVEY ST,42.753874,-84.41097,,,,,,0
3981,DobHamS,SBD Dobie past Hamilton Rd,DOBIE RD & COUNTRY WAY DR E,42.716451,-84.410406,,,,,,0
3982,DobChOkS,SBD Dobie past Chief Okemos Cir,DOBIE RD & INDIAN WAY,42.714438,-84.4104,,,,,,0
3983,DobShakS,SBD Dobie past Shaker Blvd,DOBIE RD & BOULEVARD DR,42.710107,-84.410436,,,,,,0
3984,DobBircS,SBD Dobie at Birchwood Dr,DOBIE RD & BIRCHWOOD DR,42.707181,-84.410431,,,,,,0
3985,DobHatcN,NBD Dobie before Hatch Rd,4234 DOBIE RD & HATCH RD,42.704371,-84.410267,,,,,,0
3987,DobAlgS,SBD Dobie at Algoma Dr,DOBIE RD & ALGOMA DR,42.687541,-84.410447,,,,,,0
3988,DobJollS,SBD Dobie before E Jolly Rd,DOBIE RD & SPRING LAKE DR,42.684883,-84.410467,,,,,,0
3993,OkeJollN,NBD Okemos past W Jolly Rd,3520 OKEMOS RD & JOLLY RD,42.683821,-84.432356,,,,,,0
4003,GrRivVaE,EBD Grand River past Van Atta,W GRAND RIVER AVE & OAK,42.712042,-84.377396,,,,,,0
4004,GrRivLaE,EBD Grand River past Lay Ave,E GRAND RIVER AVE & CHURCHHILL DOWNS BLVD,42.689366,-84.307333,,,,,,0
4006,GrRivLoE,EBD Grand River before Love St,W GRAND RIVER AVE & LOVE ST,42.687666,-84.299311,,,,,,0
4007,GrRivWiE,EBD Grand River past Wint St,W GRAND RIVER AVE & VILLAGE DR E,42.687711,-84.295383,,,,,,0
4018,GrRivWaE,EBD Grand River at Water St,E GRAND RIVER AVE & WATER ST,42.688316,-84.278893,,,,,,0
4032,SycParkE,WBD Sycamore past Park St,W SYCAMORE ST & E SYCAMORE ST,42.581142,-84.443949,,,,,,0
4045,HighWhyN,NBD High past Whyte St,N HIGH ST & LAKE LANSING RD,42.75393,-84.538677,,,,,,0
4051,WavBlanW,SBD Waverly before Blanche Ave,S WAVERLY RD & W KALAMAZOO ST,42.729684,-84.603025,,,,,,0
4053,EastLkLN,NBD N East past Lake Lansing,N EAST ST & RANDALL ST,42.755954,-84.54273,,,,,,0
4068,AudFarmE,EBD Auditorium before Farm Ln,AUDITORIUM RD & AUDITORIUM BLVD,42.729237,-84.478717,,,,,,0
4069,HarShawN,NBD Harrison before Shaw Ln,S HARRISON RD & LILAC AVE,42.725044,-84.493599,,,,,,0
4070,HarGRivS,SBD Harrison past Grand River,365 N HARRISON RD & HUNTINGTON RD,42.737366,-84.49358,,,,,,0
4072,KalaHarE,EBD Kalamazoo past Harrison,E KALAMAZOO ST & UNIVERSITY VILLAGE ENTRANCE,42.729284,-84.492094,,,,,,0
4077,RedCWl1S,SBD Red Cedar before Wilson,RED CEDAR RD & ELM ST,42.724194,-84.482533,,,,,,0
4079,WilsCheW,WBD Wilson past Chestnut Rd,WILSON RD & WILSON RD,42.722033,-84.488616,,,,,,0
4091,HagBchS,SBD Hagadorn before Burcham Dr,N HAGADORN RD & BURCHAM DR,42.742062,-84.462306,,,,,,0
4099,MtHoComE,EBD Mt Hope past Comanche Dr,E MOUNT HOPE RD & COMANCHE DR,42.711772,-84.44516,,,,,,0
4110,MtHoHagW,WBD Mt Hope before Hagadorn Rd,E MOUNT HOPE RD & JANICE LEE DR,42.71186,-84.460031,,,,,,0
4133,CarLnApW,SBD Carriage Lane,CARRIAGE LANE APTS & CSX TRANSPORTATION,42.694561,-84.407506,,,,,,0
4137,OkeJollE,EBD Jolly past Okemos,2205 JOLLY RD & SERVICE DR,42.682879,-84.430542,,,,,,0
4138,CarLnApE,NBD Carriage Lane,CARRIAGE LANE APTS & ALGOMA DR,42.694426,-84.407347,,,,,,0
4181,MSULibra,EBD W Circle @ Library,W CIRCLE DR,42.730868,-84.481601,,,,,,0
4204,Block36E,EBD Coleman @ Block 36,COLEMAN RD,42.773033,-84.491229,,,,,,0
4215,AbbotPlS,Abbot Place Apt.,ABBOT RD & SWART ST,42.762888,-84.483723,,,,,,0
4216,LandN,Landing @ Chandler Crossing,MELROSE PLACE,42.771101,-84.482628,,,,,,0
4219,WilsBogE,EBD Wilson past Bogue,WILSON RD & FARM LN,42.723127,-84.470805,,,,,,0
4285,GRivMarE,EBD Gr River past Marsh,1937 W GRAND RIVER AVE & MERIDIAN MALL LOT,42.720329,-84.419399,,,,,,0
4339,SagiDibE,EBD Saginaw before Dibble Blvd,E SAGINAW HWY & W THOMAS L PKWY,42.741066,-84.605766,,,,,,0
4342,PineSagS,SBD Pine past Saginaw St,N PINE ST & W SAGINAW ST,42.740622,-84.560015,,,,,,0
4345,JollPenE,EBD Jolly after S Pennsylvania,E JOLLY RD & S PENNSYLVANIA AVE,42.682954,-84.537398,,,,,,0
4359,ShiaHaaW,WBD Shiawassee at Haag Ct,E SHIAWASSEE ST & HAAG CT,42.73721,-84.53977,,,,,,0
4360,ShiPennE,EBD Shiawassee before Pennsylvania,E SHIAWASSEE ST & N PENNSYLVANIA AVE,42.7371,-84.53842,,,,,,0
4361,PennMicS,SBD Pennsylvania past Michigan,S PENNSYLVANIA AVE & EUREKA ST,42.73318,-84.53799,,,,,,0
4362,PennProS,SBD Pennsylvania before Prospect St,S PENNSYLVANIA AVE & EUREKA ST,42.73132,-84.53802,,,,,,0
4363,PennKalS,SBD Pennsylvania past Kalamazoo,S PENNSYLVANIA AVE & HICKORY ST,42.72958,-84.53806,,,,,,0
4364,PennHeaS,SBD Pennsylvania before Heald Pl,S PENNSYLVANIA AVE & BEMENT ST,42.72768,-84.53808,,,,,,0
4365,PennHazS,SBD Pennsylvania past Hazel St,S PENNSYLVANIA AVE & E HAZEL ST,42.72268,-84.5382,,,,,,0
4366,PennFayS,SBD Pennsylvania after Fayette St,S PENNSYLVANIA AVE & LINDBERGH DR,42.71772,-84.53817,,,,,,0
4367,PennBakS,SBD Pennsylvania past Baker St,S PENNSYLVANIA AVE & MOTOR AVE,42.71626,-84.53819,,,,,,0
4368,PennMotS,SBD Pennsylvania past Motor Ave,S Pennsylvania Ave & Motor,42.71501,-84.53819,,,,,,0
4369,PenKenwS,SBD Pennsylvania past Kenwood Ave,S PENNSYLVANIA AVE & RILEY ST,42.70991,-84.5382,,,,,,0
4370,PennPacS,SBD Pennsylvania past Pacific Ave,S PENNSYLVANIA AVE & PACIFIC AVE,42.70804,-84.53825,,,,,,0
4371,PennTisS,SBD Pennsylvania past Tisdale,S PENNSYLVANIA AVE & LINCOLN AVE,42.70628,-84.53822,,,,,,0
4373,PennDexS,SBD Pennsylvania past Dexter D,S PENNSYLVANIA AVE & S DEXTER DR,42.69773,-84.53816,,,,,,0
4374,PennIrvS,SBD Pennsylvania past Irvington Ave,S PENNSYLVANIA AVE & IRVINGTON AVE,42.69495,-84.53816,,,,,,0
4375,PennMapS,SBD Pennsylvania before Maplehill,S PENNSYLVANIA AVE & MAPLEHILL AVE,42.69286,-84.53815,,,,,,0
4376,PennCavS,SBD Pennsylvania past Cavanaugh,S PENNSYLVANIA AVE & SAMANTHA ST,42.68989,-84.53817,,,,,,0
4377,PennSamS,SBD Pennsylvania past Samantha,S PENNSYLVANIA AVE & SAMANTHA ST,42.68799,-84.53817,,,,,,0
4378,PenKendS,SBD Pennsylvania past Kendon Dr,S PENNSYLVANIA AVE & KENDON DR,42.68587,-84.53822,,,,,,0
4379,PennJolS,SBD Pennsylvania past Jolly Rd,S PENNSYLVANIA AVE & E JOLLY RD,42.68256,-84.53826,,,,,,0
4380,PennArms,SBD Pennsylvania past Armstrong,S PENNSYLVANIA AVE & LOUISA ST,42.67889,-84.53823,,,,,,0
4381,PenLouiS,SBD Pennsylvania before Louisa St,S PENNSYLVANIA AVE & DENNIS ST,42.67712,-84.53825,,,,,,0
4382,PennKeyS,SBD Pennsylvania past Keystone,S PENNSYLVANIA AVE & KEYSTONE AVE,42.6743,-84.53826,,,,,,0
4383,PennAndS,SBD Pennsylvania pastAndrew Jackson,S PENNSYLVANIA AVE & E MILLER RD,42.67085,-84.53827,,,,,,0
4388,EdgeAmwE,EBD Edgewood before Amwood,EDGEWOOD BLVD & AMWOOD DR,42.665071,-84.542811,,,,,,0
4389,PenDennN,NBD Pennsylvania before Dennis St,S PENNSYLVANIA AVE & LOUISA ST,42.67773,-84.53808,,,,,,0
4390,PennVerN,NBD Pennsylvania at Vernon Ave,S PENNSYLVANIA AVE & VERNON AVE,42.69671,-84.53797,,,,,,0
4395,MilCedaN,WBD Miller pastCedar St,E MILLER RD & KAYNORTH RD,42.669357,-84.545116,,,,,,0
4396,MillCurN,WBD Miller past Curry Lane,E MILLER RD & CURRY LN,42.669376,-84.548602,,,,,,0
4418,AtlaRonN,NBD Atlanta before Ronald St,ATLANTA PL & REO RD,42.687235,-84.594968,,,,,,0
4422,WavLochN,NBD Waverly past Lochmoor Dr,S WAVERLY RD & S WAVERLY RD,42.691359,-84.602987,,,,,,0
4428,SeaBurnS,SBD Seaway before Burneway Dr,SEAWAY DR & GLENBURNE BLVD,42.688371,-84.607735,,,,,,0
4429,BurnSeaE,EBD Burneway past Seaway Dr,BURNEWAY DR & GLENBURNE BLVD,42.68659,-84.60566,,,,,,0
4430,HolmSomE,EBD Holmes @ Somerset,W HOLMES RD & S MARTIN LUTHER KING JR BLVD,42.697486,-84.571161,,,,,,0
4431,StJoWash,WBD St Joseph past Washington,W SAINT JOSEPH ST & S CAPITOL AVE,42.726464,-84.552948,,,,,,0
4439,WalnLenN,NBD Walnut past Lenawee St,S WALNUT ST & W KALAMAZOO ST,42.728971,-84.556938,,,,,,0
4452,CedDecaN,NBD Cedar before Decamp Ave,CEDAR ST & DECAMP AVE,42.643307,-84.51844,,,,,,0
4453,CedDelCN,NBD Cedar past Delhi Commerce Dr,CEDAR ST & FAY ST,42.65201,-84.52962,,,,,,0
4454,CedJusN,NBD Cedar before Just A Mere,S CEDAR ST & JUST A MERE AVE,42.6576,-84.53548,,,,,,0
4457,CedArmsN,NBD Cedar before Armstrong Rd,S CEDAR ST & ARMSTRONG RD,42.67906,-84.54796,,,,,,0
4458,CedJolyN,NBD Cedar past Jolly Rd,S CEDAR ST & W JOLLY RD,42.683992,-84.547894,,,,,,0
4459,CedJessN,NBD Cedar past Jessop Ave,S CEDAR ST & FENTON ST,42.690725,-84.547905,,,,,,0
4460,CedParkN,NBD Cedar past Park Blvd,S CEDAR ST & E WILLARD AVE,42.70462,-84.547927,,,,,,0
4469,JolFiveE,EBD Jolly Rd before Five Oaks Dr,,42.682916,-84.517954,,,,,,0
4471,BJTrCoW3,EBD Beau Jardin past Belle Chase,BEAU JARDIN DR & TRAPPERS COVE TRL,42.68443,-84.506548,,,,,,0
4472,BJTrCoW5,NBD Trappers Cove past Beau Jardin,TRAPPERS COVE TRL & BEAU JARDIN DR,42.686639,-84.505416,,,,,,0
4473,BJTrCoW7,WBD Trappers Cove before Dunckel 2,TRAPPERS COVE TRL & DUNCKEL RD,42.687521,-84.512436,,,,,,0
4474,Dun496E,EBD Dunckel Rd before I-496/127,DUNCKEL RD & DUNCKEL RD,42.6898,-84.508824,,,,,,0
4477,PennMalS,SBD Pennsylvania past Malcolm X,S PENNSYLVANIA AVE & CLIMAX ST,42.72479,-84.53818,,,,,,0
4478,PennMicN,NBD Pennsylvania past Michigan,N PENNSYLVANIA AVE & S PENNSYLVANIA AVE,42.73432,-84.5378,,,,,,0
4479,ShiaLarW,WBD Shiawassee past Larch St,E SHIAWASSEE ST & N LARCH ST,42.73727,-84.54542,,,,,,0
4491,DeRiWavW,WBD Delta River before Waverly Rd,DELTA RIVER DR & CRANBROOK AVE,42.762846,-84.601873,,,,,,0
4494,NortVerN,WBD North past Vermont Ave,E NORTH ST & VERMONT AVE,42.751799,-84.534906,,,,,,0
4496,NortHigW,WBD North before High St,E NORTH ST & N HIGH ST,42.751809,-84.538519,,,,,,0
4498,SheNoEaW,WBD Sheridan past N East,E SHERIDAN RD & N LARCH ST,42.769735,-84.543383,,,,,,0
4500,HolmSomW,WBD Holmes at Sommerset,W HOLMES RD & S MARTIN LUTHER KING JR BLVD,42.697594,-84.571481,,,,,,0
4501,Hol1809W,WBD Holmes @ 1809 W Holmes,W HOLMES RD & SIMKEN DR,42.697613,-84.576686,,,,,,0
4509,CedRiApt,SBD Cedar at Riverfront Apts,N CEDAR ST & ERIE ST,42.739195,-84.5466,,,,,,0
4510,HighGieS,SBD High past Gier St,N HIGH ST & 8TH AVE,42.756337,-84.538515,,,,,,0
4511,NortHigE,EBD North past High St,E NORTH ST & N HIGH ST,42.751702,-84.538433,,,,,,0
4512,NortMasE,EBD North before Massachussetts,E NORTH ST & NEW YORK AVE,42.751683,-84.536282,,,,,,0
4523,ShaRedCW,WBD Shaw before Red Cedar Rd,N SHAW LN & SCIENCE RD,42.72608,-84.480332,,,,,,0
4526,PhysDorm,NBD Physics before Dormitory Rd,PHYSICS RD,42.730539,-84.474244,,,,,,0
4531,CircKala,EBD W.Circle past Kalamazoo St,W CIRCLE DR & UNIVERSITY VILLAGE ENTRANCE,42.731792,-84.4844,,,,,,0
4533,ShaWlsW,WBD Shaw past Wilson,E SHAW LN & WILSON RD,42.72563,-84.467669,,,,,,0
4536,FeeWlsW,Fee at Conrad,WILSON RD & CONRAD HALL,42.72425,-84.46659,,,,,,0
4537,ShaBogW1,WBD Shaw before Bogue,E SHAW LN & WILSON RD,42.725776,-84.470715,,,,,,0
4540,FarWlsN,NBD Farm past Wilson,FARM LN & E AGRICULTURE RD,42.72402,-84.477879,,,,,,0
4544,WilsReCE,EBD Wilson past Red Cedar Rd,WILSON RD & RED CEDAR RD,42.723137,-84.481417,,,,,,0
4546,WilsFarE,EBD Wilson before Farm Ln,WILSON RD & FARM LN,42.723126,-84.478813,,,,,,0
4547,WilsSciE,EBD Wilson Rd past Science,WILSON RD & SCIENCE RD,42.723121,-84.473495,,,,,,0
4552,CaCiAir5,W Circle Dr before Hangar Dr,W CIRCLE DR & E CIRCLE DR,42.773996,-84.591451,,,,,,0
4557,MillCouW,WBD  Miller past Coulson Ct,W MILLER RD & COULSON CT,42.66935,-84.552713,,,,,,0
4558,MillEllW,WBD Miller past Ellendale Dr,W MILLER RD & ELLENDALE DR,42.669369,-84.556248,,,,,,0
4559,MilHillW,WBD Miller past Hilliard Rd,W MILLER RD & HILLIARD RD,42.669352,-84.558776,,,,,,0
4560,MilWashW,WBD Miller past Washington,W MILLER RD & S WASHINGTON RD,42.669362,-84.563685,,,,,,0
4561,MillDafW,WBD Miller before Daft St,W MILLER RD & DAFT ST,42.669327,-84.566741,,,,,,0
4562,MilWintW,WBD Miller past  Winterset Dr,W MILLER RD & YUNKER ST,42.669319,-84.570398,,,,,,0
4563,HaagMilN,NBD Haag before Miller,HAAG RD & SELFRIDGE BLVD,42.66838,-84.572645,,,,,,0
4564,MillGroW,WBD Miller before Grovenberg Rd,W MILLER RD & GROVENBURG RD,42.669303,-84.582229,,,,,,0
4565,MillPicW,WBD Miller before Picardy St,W MILLER RD & PHEASANT RD,42.669295,-84.586255,,,,,,0
4566,MillWisE,EBD Miller past Wise Rd,W MILLER RD & PLEASANT GROVE RD,42.669161,-84.59152,,,,,,0
4570,MLKJollN,NBD MLK past Jolly Rd,S MARTIN LUTHER KING JR BLVD & TRESSA DR,42.683814,-84.567803,,,,,,0
4572,WavOldFS,SBD Waverly before Old Farm Ln,S WAVERLY RD & OLD FARM LN,42.674314,-84.60313,,,,,,0
4575,MillPleE,EBD Miller past Pleasant Grove Rd,W MILLER RD & PLEASANT GROVE RD,42.669196,-84.586721,,,,,,0
4576,MillGroE,EBD Miller past Grovenberg Rd,W MILLER RD & GROVENBURG RD,42.669196,-84.582352,,,,,,0
4577,MillWooE,EBD Miller past Woodgate Dr,W MILLER RD & SELFRIDGE BLVD,42.669177,-84.578093,,,,,,0
4578,BalfMilS,SBD Balfour Dr. past Miller,BALFOUR DR & SELFRIDGE BLVD,42.667817,-84.576241,,,,,,0
4580,MillSouE,EBD Miller before Southbrook,W MILLER RD & SOUTHBROOK AVE,42.669238,-84.565637,,,,,,0
4581,MillSomE,EBD Miller past Somerset Rd,W MILLER RD & SOMMERSET RD,42.669262,-84.556002,,,,,,0
4582,MillAnnE,EBD Miller at Annapolis Dr,W MILLER RD & ANNAPOLIS DR,42.669243,-84.553585,,,,,,0
4583,MillGarE,EBD Miller past Gardenia Ave,E MILLER RD & GARDENIA AVE,42.669269,-84.549645,,,,,,0
4584,MillCe1E,EBD Miller before Cedar St,E MILLER RD & KAYNORTH RD,42.669249,-84.545202,,,,,,0
4585,JolFiveW,WBD Jolly past Five Oaks Dr,E JOLLY RD & FIVE OAKS DR,42.682979,-84.517524,,,,,,0
4595,MidvalS2,Middlevale before Laundromat,MIDDLEVALE RD & S HARRISON RD,42.717793,-84.501175,,,,,,0
4596,KalaMarE,EBD Kalamazoo past Marigold,E KALAMAZOO ST & MARIGOLD AVE,42.727949,-84.501898,,,,,,0
4603,EdgeAmeE,EBD Edgewood past American,EDGEWOOD BLVD & AMERICAN RD,42.663011,-84.548329,,,,,,0
4604,HasEFern,EBD Haslett past Ferndale Ave,HASLETT RD & FERNDALE AVE,42.746898,-84.45753,,,,,,0
4605,HasParkE,EBD Haslett past Park Lake Rd,HASLETT RD & E END DR,42.746913,-84.44657,,,,,,0
4606,BoIsHasN,NBD Boise Isle past Haslett Rd,BOIS ILE DR & HASLETT RD,42.74747,-84.41971,,,,,,0
4607,CentMarW,WBD Central Park past Marsh Rd,CENTRAL PARK DR & NEWMAN RD,42.727499,-84.414614,,,,,,0
4608,LacLkLS2,SBD LacDuMont near #2074,LAC DU MONT DR,42.752515,-84.424797,,,,,,0
4609,LacLkLS3,SBD LacDuMont past Lake Lansing,LAC DU MONT DR & LAKE LANSING RD,42.750618,-84.424777,,,,,,0
4610,LacBoiS1,SBD LacDuMont before Bois Isle,LAC DU MONT DR & LAKE LANSING RD,42.749189,-84.420259,,,,,,0
4611,BoisHasS,SBD Bois Isle before Haslett Rd,BOIS ILE DR & HASLETT RD,42.747515,-84.419858,,,,,,0
4614,DobSpLaN,NBD Dobie past Jolly Rd,3576 DOBIE RD & ALGOMA DR,42.685599,-84.41033,,,,,,0
4615,DobFoHiN,NBD Dobie past Forest Hills,4496 DOBIE RD & FOREST HILLS DR,42.711628,-84.410297,,,,,,0
4616,DobMinTN,NBD Dobie past Minoka Trail,DOBIE RD & MINOKA TRL,42.715762,-84.410273,,,,,,0
4617,GRivWaHE,EBD Gr River past Washington Hts,W GRAND RIVER AVE & WASHINGTON HEIGHTS AVE,42.719142,-84.414931,,,,,,0
4618,DobKinaS,SBD Dobie before Kinawa Dr,DOBIE RD & CSX TRANSPORTATION,42.697938,-84.410444,,,,,,0
4619,InCoCaFN,NBD Ingham Cty Care Facility,INGHAM COUNTY EXTENDED CARE & ALGOMA DR,42.693229,-84.408897,,,,,,0
4620,JolAlaiW,WBD Jolly past Alaiedon,2112 JOLLY RD & SERVICE DR,42.682991,-84.427215,,,,,,0
4621,MtHoHawW,WBD Mt Hope past Hawthorne Lane,E MOUNT HOPE RD & FAIRLANE DR,42.711861,-84.453289,,,,,,0
4627,CheWlsS,SBD Chestnut before Wilson Rd,CHESTNUT RD & WILSON RD,42.724189,-84.48768,,,,,,0
4632,JefCherN,NBD Jefferson before Cherry,S JEFFERSON ST & E SOUTH ST,42.57597,-84.443066,,,,,,0
4634,McPhWasN,NBD McPherson past Washtenaw,MCPHERSON AVE & W KALAMAZOO ST,42.732322,-84.574908,,,,,,0
4636,ClipMchN,NBD Clippert St past E Michigan,N CLIPPERT ST & S CLIPPERT ST,42.734638,-84.508264,,,,,,0
4638,LarcShiN,NBD Larch past Shiawassee,N LARCH ST & E SHIAWASSEE ST,42.737584,-84.544538,,,,,,0
4639,LkLaHigW,WBD Lake Lansing past High St,LAKE LANSING RD & LAKE LANSING RD,42.755542,-84.540494,,,,,,0
4642,ShiaHowE,EBD Shiawassee before Howe St,W SHIAWASSEE ST & WESTMORELAND AVE,42.737323,-84.571159,,,,,,0
4643,ShiaBarE,EBD Shiawassee past Bartlett St,W SHIAWASSEE ST & BARTLETT ST,42.737331,-84.568346,,,,,,0
4644,ShiaSycE,EBD Shiawassee before Sycamore St,W SHIAWASSEE ST & N SYCAMORE ST,42.737303,-84.562548,,,,,,0
4645,BogGRivS,SBD Bogue past Grand River,BOGUE ST & COLLINGWOOD DR,42.731271,-84.472154,,,,,,0
4646,AudDriv,NBD - Fairchild Aud.,AUDITORIUM DR & FARM LN,42.728431,-84.477343,,,,,,0
4647,KalaHomE,EBD Kalamazoo past Homer,E KALAMAZOO ST & S CLIPPERT ST,42.729923,-84.508344,,,,,,0
4650,KalaCliW,WBD Kalamazoo past Clippert,E KALAMAZOO ST & S HOMER ST,42.730021,-84.508737,,,,,,0
4678,VillageS,SBD Hunsacker @ Village,Hunsaker St,42.77418,-84.48607,,,,,,0
4679,CedKernS,SBD Cedar @ Kern,N CEDAR ST & KERNS RD,42.590867,-84.4606,,,,,,0
4681,GrRivKaW,WBD Grand River & Kalmink,GRAND RIVER AVE W,42.667069,-84.181277,,,,,,0
4682,CentGrRS,SBD Central Park before Grand River,CENTRAL PARK DR & NEWMAN RD,42.719385,-84.409269,,,,,,0
4683,CentNewS,SBD Central Park at Newman,CENTRAL PARK DR & NEWMAN RD,42.72242,-84.410292,,,,,,0
4688,Ramp5,NBD Red Cedar & Trowbridge,RAMP 5,42.721321,-84.482034,,,,,,0
4692,HagGRiN,NBD Hagadorn past Grand River,N HAGADORN RD & E GRAND RIVER AVE,42.729955,-84.462047,,,,,,0
4694,ETCNCGE,EBD Drive South of NCG,EASTWOOD TOWNE CENTER & LAKE LANSING RD,42.764513,-84.515489,,,,,,0
4695,ChesGRiS,SBD Chester before Grand River,CHESTER RD & WOODRUFF AVE,42.743463,-84.511349,,,,,,0
4696,SagPenn,EBD Saginaw past Pennsylvania,E SAGINAW ST & N CEDAR ST,42.740847,-84.537139,,,,,,0
4697,KellCent,NBD Harrison past Kalamazoo,S HARRISON RD & BRODY RD N,42.730977,-84.49386,,,,,,0
4699,GRivHarW,WBD Grand River past Harrison,W GRAND RIVER AVE & N HARRISON RD,42.738243,-84.494402,,,,,,0
4701,BalfMilN,NBD Balfour before Miller,BALFOUR DR & YUNKER ST,42.668273,-84.576179,,,,,,0
4702,HaagMilS,SBD Haag past Miller,HAAG RD & YUNKER ST,42.668604,-84.572804,,,,,,0
4704,GeorHaaE,EBD Georgetown past Balfour,GEORGETOWN BLVD & SELFRIDGE BLVD,42.664283,-84.575689,,,,,,0
4705,HaagGeoN,NBD Haag past Georgetown,HAAG RD & SELFRIDGE BLVD,42.665124,-84.574339,,,,,,0
4710,LanWavW,WBD Old Lansing before Waverly,OLD LANSING RD & CADILLAC AVE,42.714203,-84.602582,,,,,,0
4711,HolmLawW,WBD Holmes past Lawdor,W HOLMES RD & LAWDOR RD,42.697686,-84.595606,,,,,,0
4712,HolmBerW,WBD Holmes at Berwick,W HOLMES RD & BERWICK DR,42.697695,-84.598651,,,,,,0
4713,HolmWavW,WBD Holmes before Waverly,W HOLMES RD & AVERILL DR,42.697712,-84.602568,,,,,,0
4720,LanYMCA,WBD Old Lansing  @ YMCA,OLD LANSING RD & PACKARD RD,42.717317,-84.598382,,,,,,0
4733,CedaAmeS,SBD Cedar past American,S CEDAR ST & CEDAR/PENNSYLVANIA CUTOFF,42.661704,-84.5389,,,,,,0
4734,CedDelCS,SBD Cedar before Delhi Commerce,CEDAR ST & S CEDAR ST,42.65134,-84.52915,,,,,,0
4737,HaagGeoS,SBD Haag Road Before Georgetown,HAAG RD & YUNKER ST,42.665428,-84.574585,,,,,,0
4738,GeoHaagW,WBD Georgetown past Haag,GEORGETOWN BLVD & YUNKER ST,42.664721,-84.576033,,,,,,0
4739,BalfGeoS,SBD Balfour Dr. before Georgetown,BALFOUR DR & SELFRIDGE BLVD,42.665894,-84.576744,,,,,,0
4742,MillWooW,WBD Miller past Woodgate,W MILLER RD & LONGMEADOW RD,42.669285,-84.578891,,,,,,0
4743,MillWisW,WBD Miller past Wise,W MILLER RD & WISE RD,42.669253,-84.591568,,,,,,0
4744,MillWinE,EBD Miller past Winterset,W MILLER RD & DAFT ST,42.669221,-84.569404,,,,,,0
4745,MillWasE,EBD Miller past Washington,W MILLER RD & COOPER RD,42.669264,-84.562176,,,,,,0
4746,MillHilE,EBD Miller past Hilliard,W MILLER RD & HILLIARD RD,42.669245,-84.558641,,,,,,0
4749,HarFoAcS,SBD Harrison Rd @ Forest Acres CC,S HARRISON RD & E MOUNT HOPE RD,42.70858,-84.493955,,,,,,0
4750,MidvalS3,Middlevale past Elem School,MIDDLEVALE RD & S HARRISON RD,42.714213,-84.500885,,,,,,0
4751,HarCresS,SBD Harrison past N Crescent,S HARRISON RD & CRESCENT RD,42.715935,-84.493956,,,,,,0
4752,MidvalN1,Middlevale before Elementary School,MIDDLEVALE RD & S HARRISON RD,42.714822,-84.500933,,,,,,0
4753,MidvalN3,Middlevale before N Crescent,MIDDLEVALE RD & S HARRISON RD,42.717209,-84.498719,,,,,,0
4755,HarTrowN,NBD Harrison past Trowbridge,S HARRISON RD & CRESCENT RD,42.720481,-84.49363,,,,,,0
4759,KalaMarW,WBD Kalamazoo past Marigold,E KALAMAZOO ST & MARIGOLD AVE,42.728111,-84.502389,,,,,,0
4760,HarKalaN,NBD Harrison before Kalamazoo,S HARRISON RD & LILAC AVE,42.727227,-84.493608,,,,,,0
4761,BogWaEdS,SBD Bogue past Waters Edge,BOGUE ST & WATERS EDGE DR,42.728676,-84.472171,,,,,,0
4762,WavOlLN,NBD Waverly past Old Lansing,S WAVERLY RD & LANSING RD,42.714409,-84.60295,,,,,,0
4763,WilmBufE,EBD William past Buffalo,WILLIAM ST & BUFFALO ST,42.724403,-84.579307,,,,,,0
4764,WilmBufW,WBD William past Buffalo,WILLIAM ST & OLDS AVE,42.724502,-84.580167,,,,,,0
4767,FronBarE,EBD Frontage Road past Barbara,S SERVICE DR & UNNAMED ST,42.74069,-84.62722,,,,,,0
4769,HoltAdeW,WBD Holt Road past Adelphe,W HOLT RD & PHILLIPS AVE,42.64027,-84.52675,,,,,,0
4770,HoltDeaW,WBD Holt Road past Dean,W HOLT RD & JEFFERSON ST,42.6403,-84.53041,,,,,,0
4771,HoltHamW,WBD Holt Rd. past Hamilton,W HOLT RD & PAGEANT WAY,42.640362,-84.53325,,,,,,0
4772,HoltWyHW,WBD Holt Rd. past Wyndam Hills,W HOLT RD & N EIFERT RD,42.64036,-84.53684,,,,,,0
4773,HoltAurE,EBD Holt Rd past Aurelius,W HOLT RD & AURELIUS RD,42.640142,-84.522823,,,,,,0
4774,HoltElmE,EBD Holt Rd. past Elm,W HOLT RD & ELM ST,42.640176,-84.519842,,,,,,0
4780,GRivAndE,EBD Grand River at Andrea,N GRAND RIVER AVE & ANDREA DR,42.767178,-84.592398,,,,,,0
4784,EastBatN,NBD N East past Bates,N EAST ST & BATES ST,42.762415,-84.542725,,,,,,0
4795,RegMalcN,SBD Regent past Malcolm X,REGENT ST & E MOUNT HOPE AVE,42.723132,-84.52389,,,,,,0
4799,SagClipE,EBD Saginaw past Clippert,E SAGINAW ST & FRANDOR AVE,42.740785,-84.507888,,,,,,0
4800,GRiClipW,WBD Grand River before Clippert,E GRAND RIVER AVE & N CLIPPERT ST,42.741473,-84.506425,,,,,,0
4802,ETCMitcW,WBD ETC Drive before Mitchells,SAMS WAY & TOWNE CENTRE BLVD,42.762821,-84.51484,,,,,,0
4803,HowaGRiS,SBD Howard past Grand River,N HOWARD ST & MELODY LN,42.741629,-84.510725,,,,,,0
4804,HowaSagS,SBD Howard past Saginaw,N HOWARD ST & FERNWOOD AVE,42.740009,-84.511132,,,,,,0
4805,KalaHrrW,WBD Kalamazoo before Harrison,E KALAMAZOO ST & SCIENCE RD,42.729294,-84.492585,,,,,,0
4807,WilsCheE,EBD Wilson before Chestnut,WILSON RD & CHESTNUT RD,42.721944,-84.488592,,,,,,0
4808,CheShawN,NBD Chestnut before Shaw,Chestnut Rd & Unknown,42.7251,-84.487683,,,,,,0
4819,MACAlbN,NBD MAC past Albert,MAC AVE & MARIOTT SERVICE DRIVE,42.735887,-84.480647,,,,,,0
4820,MACElizN,NBD MAC past Elizabeth,MAC AVE & BEECH ST,42.73842,-84.480606,,,,,,0
4821,MACBurcN,NBD MAC before Burcham,634 MAC AVE & BURCHAM DR,42.740209,-84.48059,,,,,,0
4822,BurOlHiE,EBD Burcham before Old Hickory,BURCHAM DR & OLD HICKORY LN,42.740618,-84.477125,,,,,,0
4823,AltBurN1,NBD Alton past Burcham,718 ALTON RD & BURCHAM DR,42.741359,-84.471837,,,,,,0
4824,AltBurN2,NBD Alton across St. Thomas,ALTON RD & BURCHAM DR,42.74345,-84.471875,,,,,,0
4825,AltBurN3,NBD Alton before Saginaw,ALTON RD & WHITEHILLS DR,42.746286,-84.471882,,,,,,0
4826,HagCresN,NBD Hagadorn past Crestwood,N HAGADORN RD & APPLEGATE LN,42.751526,-84.462219,,,,,,0
4827,HagApplN,NBD Hagadorn past Applegate,5956 N HAGADORN RD & APPLEGATE LN,42.753804,-84.462268,,,,,,0
4828,LkLaAbbW,WBD Lake Lansing past Abbott,W LAKE LANSING RD & ARBOR GLEN DR,42.759401,-84.48452,,,,,,0
4829,LkLaArbW,WBD Lake Lansing past Arbor Glenn,W LAKE LANSING RD & N HARRISON RD,42.75938,-84.487966,,,,,,0
4830,LkLaHarE,EBD Lake Lansing past Harrison,W LAKE LANSING RD & BURNT TREE LN,42.759431,-84.492184,,,,,,0
4831,LkLaArbE,EBD Lake Lansing before Arbor Glen,W LAKE LANSING RD & BURNT TREE LN,42.759312,-84.488571,,,,,,0
4832,BiRoRutE,EBD Birch Row past Rutherford,BIRCH ROW DR & PORTER AVE,42.758234,-84.473765,,,,,,0
4833,BiRoPolE,EBD Birch Row past Pollard,BIRCH ROW DR & GIBSON AVE,42.758249,-84.470545,,,,,,0
4834,BiRoHarE,EBD Birch Row past Hardy,BIRCH ROW DR & HARDY AVE,42.758237,-84.46724,,,,,,0
4835,BiRoHagE,EBD Birch Row past Hagadorn,BIRCH ROW DR & N HAGADORN RD,42.758653,-84.462729,,,,,,0
4836,BiRoBriE,EBD Birch Row past Briarwick,6180 BIRCH ROW DR & INNKEEPERS CT,42.760028,-84.460883,,,,,,0
4837,BiRoCobE,SBD Birch Row after Cobbler's,N HAGADORN RD & INNKEEPERS CT,42.760882,-84.463363,,,,,,0
4838,HagFarrS,SBD Hagadorn at Farrington,N HAGADORN RD & FARRINGTON CT,42.759048,-84.463859,,,,,,0
4839,HagHoriS,SBD Hagadorn before Horizon,N HAGADORN RD & HORIZON DR,42.756729,-84.462438,,,,,,0
4840,HagApplS,SBD Hagadorn before Applegate,1801 N HAGADORN RD & CRESTWOOD DR,42.75289,-84.462457,,,,,,0
4841,HagCresS,SBD Hagadorn past Crestwood,N HAGADORN RD & FORTUNE DR,42.751002,-84.462461,,,,,,0
4842,AltBurS1,SBD Alton Street before Whitehills,ALTON RD & WHITEHILLS DR,42.74541,-84.472338,,,,,,0
4844,BurOlHiW,WBD Burcham past Old Hickory,BURCHAM DR & OLD HICKORY LN,42.740725,-84.476892,,,,,,0
4846,HagGlenS,SBD Hag across from Glenwood Apt,HAGADORN RD & BRIARCLIFF ST,42.715808,-84.462394,,,,,,0
4848,AbbLkLaS,SBD Abbot  past Lake Lansing,2205 ABBOT RD & E LAKE LANSING RD,42.758673,-84.483804,,,,,,0
4851,AurJollN,NBD Aurelius past Jolly,AURELIUS RD & E JOLLY RD,42.683796,-84.523391,,,,,,0
4854,ProvAurE,EBD Provincial House past Aurelius,PROVINCIAL HOUSE DR & CALLIHAN CT,42.696411,-84.520922,,,,,,0
4855,KalaRegW,WBD Kalamazoo past Regent,E KALAMAZOO ST & REGENT ST,42.730049,-84.524165,,,,,,0
4856,KalaLesE,EBD Kalamazoo past Leslie,E KALAMAZOO ST & LESLIE ST,42.729941,-84.524509,,,,,,0
4861,TimSquaS,SBD Times Square past Marsh,TIMES SQUARE DR & 5TH AVE,42.729506,-84.409782,,,,,,0
4862,CentMarE,EBD Central Park past Marsh,CENTRAL PARK DR & MARSH RD,42.72714,-84.413866,,,,,,0
4863,TimeSquN,NBD Times Square past Central Park,TIMES SQUARE DR & MARSH RD,42.728601,-84.409035,,,,,,0
4864,OldLanW,WBD Old Lansing past Lansing Rd,OLD LANSING RD & OLDS AVE,42.719859,-84.594894,,,,,,0
4865,CedKernN,NBD Cedar at Kern,N CEDAR ST & KERNS RD,42.591198,-84.460415,,,,,,0
4871,ETCBravW,WBD ETC Drive by Bravo,SAMS WAY & EASTWOOD TOWNE CENTER,42.762813,-84.516573,,,,,,0
4872,WalMartE,EBD @ Sams Club,EASTWOOD TOWNE CENTER & LAKE LANSING RD,42.764596,-84.519434,,,,,,0
4873,WalMartW,WBD @ Wal Mart,EASTWOOD TOWNE CENTER & EASTWOOD TOWNE CENTER,42.764748,-84.52011,,,,,,0
4874,LkLaMjLL,WBD Lake Lansing past Meijer Ent.,W LAKE LANSING RD & MEIJER LAKE LANSING LOT,42.760835,-84.501853,,,,,,0
4876,MLKKzo1S,SBD MLK before Kalamazoo,S MARTIN LUTHER KING JR BLVD & KINGSLEY CT,42.730414,-84.567317,,,,,,0
4890,HighNorS,SBD High St past North,1559 N HIGH ST & NEW YORK AVE,42.751335,-84.538802,,,,,,0
4891,HighGrRS,SBD High St before Grand River,1221 N HIGH ST & DRURY LN,42.747791,-84.538768,,,,,,0
5378,HagMtHoN,NBD Hagadorn past Mt Hope,HAGADORN RD & JANICE LEE DR,42.712622,-84.461958,,,,,,0
5379,OkeKewaN,NBD Okemos at Kewanee,OKEMOS RD & KEWANEE WAY,42.709394,-84.432284,,,,,,0
5381,MtHoSemE,EBD Mt Hope before Seminole,E MOUNT HOPE RD & INDIAN HILLS DR,42.71182,-84.432867,,,,,,0
5382,DobKinaN,NBD Dobie before Kinawa,DOBIE RD & KINAWA DR,42.696972,-84.410287,,,,,,0
5384,JolFairE,EBD Jolly past Fairhills Dr,JOLLY RD & FAIRHILLS DR,42.682838,-84.421212,,,,,,0
5385,GRivWaHW,WBD Gr River past Washington Hts,W GRAND RIVER AVE & WASHINGTON HEIGHTS AVE,42.719133,-84.414526,,,,,,0
5386,LarcEriN,NBD Larch Street at Erie,N LARCH ST & ERIE ST,42.739857,-84.544561,,,,,,0
5443,CedKalS,SBD Cedar past Kalamazoo,S CEDAR ST & E KALAMAZOO ST,42.72831,-84.54547,,,,,,0
5445,HasWestW,WBD Haslett past Westminster,HASLETT RD & OKEMOS RD,42.747024,-84.434332,,,,,,0
5446,HasParkW,WBD Haslett past Park Lake,HASLETT RD & PARK LAKE RD,42.747049,-84.448597,,,,,,0
5447,LkLaBoiE,EBD Lake Lansing past Bois Isle,LAKE LANSING RD & LAC DU MONT DR,42.754915,-84.419409,,,,,,0
5450,HolmExpE,EBD Holmes past Express Ct.,W HOLMES RD & EXPRESS CT,42.697496,-84.573936,,,,,,0
5463,JeffCher,SBD Jefferson before Cherry,S JEFFERSON ST & E CHERRY ST,42.576256,-84.443224,,,,,,0
5466,JefMaplS,SBD Jefferson before Maple,S JEFFERSON ST & E MAPLE ST,42.580542,-84.443203,,,,,,0
5467,JeffOakS,SBD Jefferson before Oak,S JEFFERSON ST & W ELM ST,42.577885,-84.443221,,,,,,0
5468,CedCurtS,SBD Cedar past Curtis,N CEDAR ST & CURTIS ST,42.588196,-84.456155,,,,,,0
5469,ColuCedE,EBD Columbia past Cedar,W COLUMBIA ST & MECHANIC ST,42.582162,-84.45211,,,,,,0
5470,JeffOakN,NBD Jefferson before Oak,S JEFFERSON ST & W ELM ST,42.57792,-84.443074,,,,,,0
5471,JefMaplN,NBD Jefferson past Maple,S JEFFERSON ST & E MAPLE ST,42.580631,-84.443055,,,,,,0
5472,52HighvS,SBD M-52 past Highview Rd,STOCKBRIDGE RD & HIGHVIEW DR,42.662845,-84.19836,,,,,,0
5473,52HighvN,NBD M-52 before Highview Rd.,STOCKBRIDGE RD,42.662675,-84.198214,,,,,,0
5489,GrRivWeW,WBD Grand River at Webberville,GRAND RIVER AVE W & Webberville Rd,42.667241,-84.187633,,,,,,0
5491,GRivSkiW,WBD Grand River past Skirting Av,E GRAND RIVER AVE & HIGHVIEW DR,42.685597,-84.265022,,,,,,0
5499,CentGrRN,NBD Central Park past Grand River,CENTRAL PARK DR & DOBIE RD,42.718356,-84.409492,,,,,,0
5500,CentNewN,NBD Central Park at Newman,CENTRAL PARK DR & NEWMAN RD,42.72275,-84.410144,,,,,,0
5512,GRivHarE,EBD Grand River past Harrison,W GRAND RIVER AVE & ARDSON RD,42.737777,-84.49315,,,,,,0
5514,GrRiDo2E,EBD Grand RIver past Dobie,W GRAND RIVER AVE & CENTRAL PARK DR,42.717505,-84.408868,,,,,,0
5540,InCoCaFS,SBD Ingham County Care Facility,INGHAM COUNTY EXTENDED CARE & CSX TRANSPORTATION,42.692738,-84.409218,,,,,,0
5542,CentTiSW,WBD Central Park past Times Square,1801 CENTRAL PARK DR & NEWMAN RD,42.727281,-84.412355,,,,,,0
5543,FIACedE,EBD FIA Entrance off Cedar,UNNAMED ST & S CEDAR ST,42.681025,-84.547673,,,,,,0
5546,JolDuncE,EBD Jolly before Dunckel,,42.682905,-84.514406,,,,,,0
5548,PiTrJolS,SBD PineTree past Jolly,PINE TREE RD & PATIENT CARE DR,42.682173,-84.503752,,,,,,0
5551,StonWabN,NBD Stoneleigh past Wabash,STONELEIGH DR & FIRESIDE DR,42.699307,-84.514902,,,,,,0
5553,ColHunsE,EBD Coleman before Hunsaker,COLEMAN RD & COOLIDGE RD,42.77302,-84.487185,,,,,,0
5578,KalaMagW,WBD Kalamazoo past Magnolia,E KALAMAZOO ST & S MAGNOLIA AVE,42.729982,-84.521717,,,,,,0
5579,CherKalS,SBD Cherry past Kalamazoo,CHERRY ST & E LENAWEE ST,42.729081,-84.549167,,,,,,0
5581,JollBelE,EBD Jolly Past Belle Chase,,42.682919,-84.508133,,,,,,0
5583,WavBridS,SBD Waverly past Bridgeport,S WAVERLY RD,42.671147,-84.603081,,,,,,0
5584,MillWavE,EBD Miller past Waverly,W MILLER RD & S WAVERLY RD,42.669214,-84.602259,,,,,,0
5585,MillCoaE,EBD Miller past Coachlight,W MILLER RD & COACHLIGHT COMMON,42.669151,-84.59783,,,,,,0
5586,MillCoaW,WBD Miller past Coachlight,W MILLER RD & COACHLIGHT COMMON,42.669322,-84.598491,,,,,,0
5587,MillWavW,WBD Miller before Waverly,W MILLER RD & S WAVERLY RD,42.669322,-84.602062,,,,,,0
5588,WavBridN,NBD Waverly past Bridgeport,S WAVERLY RD & BRIDGEPORT DR,42.671469,-84.602971,,,,,,0
5590,HighNorN,NBD High St before North,N HIGH ST & DRURY LN,42.751129,-84.538654,,,,,,0
5593,GrRivPdW,WBD Gr River at Paddock Dr,W GRAND RIVER AVE & PADDOCK DR,42.715917,-84.399674,,,,,,0
5595,GrRivCRE,EBD Grand River Before Corwin,W GRAND RIVER AVE & W GRAND RIVER AVE,42.688088,-84.303582,,,,,,0
5596,GrRivMcE,EBD Grand River At McCormick,W GRAND RIVER AVE & MCCORMICK ST,42.68774,-84.292387,,,,,,0
5597,GrRivJaE,EBD Grand River After Jackson,W GRAND RIVER AVE & E GRAND RIVER AVE,42.688716,-84.285349,,,,,,0
5598,GrRivWaW,WBD Grand River After Water ST,E GRAND RIVER AVE & WATER ST,42.688469,-84.279187,,,,,,0
5599,HaslHagE,EBD Haslett before Hagadorn,HASLETT RD & E SAGINAW ST,42.746861,-84.464364,,,,,,0
5600,MLKHilcS,SBD MLK past Hillcrest St,S MARTIN LUTHER KING JR BLVD & HILLCREST ST,42.692752,-84.567603,,,,,,0
5601,HarMtHoS,SBD Harrison Road past Mt Hope,S HARRISON RD & E MOUNT HOPE RD,42.71122,-84.493951,,,,,,0
5602,HarMtHoN,NBD Harrison Road past Mt Hope,S HARRISON RD & CRESCENT RD,42.712526,-84.493617,,,,,,0
5608,MLKWashN,NBD MLK past Washtenaw,S MARTIN LUTHER KING JR BLVD & Washtenaw,42.73159,-84.56667,,,,,,0
5609,GrRiDo1E,EBD Gr River  before Dobie Road,W GRAND RIVER AVE & COUNTRY WAY DR E,42.718234,-84.411593,,,,,,0
5636,KalaChaW,WBD Kalamazoo before Charles,E KALAMAZOO ST & CHARLES ST,42.730051,-84.513392,,,,,,0
5637,JollOkeW,WBD Jolly before Okemos,JOLLY RD & SERVICE DR,42.682979,-84.431327,,,,,,0
5638,JollWavW,WBD Jolly before Waverly Road,W JOLLY RD & WEXFORD RD,42.683199,-84.601069,,,,,,0
5639,GrRivSWE,EBD Grand River before Sky Way,E Grand River Rd & Skyway Dr,42.6837,-84.25607,,,,,,0
5640,GrRivSWW,WBD Grand River past Sky Way,E Grand River Rd & Skyway Dr,42.68364,-84.25537,,,,,,0
5641,WashBanS,SBD Washington at Bank St,S WASHINGTON AVE & E BARNES AVE,42.713298,-84.552509,,,,,,0
5642,HilVoCeS,Hill Vocational Center,,42.673303,-84.591777,,,,,,0
5645,FarmShaS,SBD Farm past S Shaw,FARM LN,42.724879,-84.477988,,,,,,0
5646,CedJusS,SBD Cedar past Just-a-Mere,S CEDAR ST & BROOKDALE ST,42.65675,-84.53485,,,,,,0
5647,JollCedW,WBD Jolly before Cedar,E JOLLY RD & W JOLLY RD,42.683091,-84.54599,,,,,,0
5669,CedWil1N,NBD Cedar before Willoughby,CEDAR ST & FAY ST,42.65352,-84.53121,,,,,,0
5670,GrRivDoW,WBD Grand River past Dobie,1729 W GRAND RIVER AVE & COUNTRY WAY DR E,42.718215,-84.411139,,,,,,0
5672,GrRivPFE,EBD Gr River past Paddock Farms,W GRAND RIVER AVE & PADDOCK DR,42.7158,-84.399552,,,,,,0
5673,TranRenN,NBD Tranter past Rensen,TRANTER ST & CATA HEADQUARTERS,42.684992,-84.534536,,,,,,0
5675,MichGraW,WBD Michigan before Washington,E MICHIGAN AVE & WASHINGTON STREET,42.733721,-84.551285,,,,,,0
5678,EdgwCedW,WBD Edgewood past Cedar,EDGEWOOD BLVD & CEDAR CONN/CEDAR RAMP,42.665669,-84.542444,,,,,,0
5679,EdgwAmwW,WBD Edgewood past Amwood,EDGEWOOD BLVD & PARIS AVE,42.665008,-84.544138,,,,,,0
5680,EdgwAmeW,WBD Edgewood past American Road,EDGEWOOD BLVD & CEDAR CONN/CEDAR RAMP,42.663184,-84.548802,,,,,,0
5683,KalaPenW,WBD Kalamazoo past Pennsylvania,E KALAMAZOO ST & S PENNSYLVANIA AVE,42.729957,-84.538488,,,,,,0
5684,EdgeSBrW,WBD Edgewood at Southbrook Apts,EDGEWOOD BLVD & CEDAR CONN/CEDAR RAMP,42.663998,-84.54663,,,,,,0
5687,ChesShaN,NBD Chestnut past Shaw,CHESTNUT RD & W SHAW LN,42.726605,-84.487774,,,,,,0
5689,EdgeRicW,WBD Edgewood past Richard,EDGEWOOD BLVD & RICHARD RD,42.660736,-84.557713,,,,,,0
5690,EdgeWasW,WBD Edgewood past Washington,E EDGEWOOD/W EDGEWOOD TURN & EDGEWOOD BLVD,42.663136,-84.565615,,,,,,0
5691,EdgeWa2W,WBD Edgewood @ Edgewood Villas,EDGEWOOD BLVD & CEDAR CONN/CEDAR RAMP,42.66327,-84.567725,,,,,,0
5692,EdgeWasE,EBD Edgewood past Washington,EDGEWOOD BLVD & W EDGEWOOD/E EDGEWOOD TURN,42.66232,-84.56292,,,,,,0
5693,BurcButE,EBD Burcham before Butterfield,BURCHAM DR,42.740614,-84.47328,,,,,,0
5694,OkeFoxHN,NBD Okemos before Fox Hollow,OKEMOS RD & FIELDSTONE DR,42.689047,-84.432356,,,,,,0
5696,LkLaNYoE,EBD Lake Lansing past New York,LAKE LANSING RD & NEW YORK AVE,42.756202,-84.537286,,,,,,0
5697,LkLaComE,EBD Lake Lansing past Commonwealth,LAKE LANSING RD & MASSACHUSETTS AVE,42.757553,-84.535135,,,,,,0
5698,LkLaChaE,EBD Lake Lansing past Chamberlain,LAKE LANSING RD & WOOD ST,42.760619,-84.528115,,,,,,0
5699,LkLaWo2E,EBD Lk Lansing before Wood,LAKE LANSING RD & WOOD ST,42.76065,-84.524805,,,,,,0
5700,WooLkLaN,NBD Wood past Lake Lansing,WOOD ST & LAKE LANSING RD,42.761099,-84.52299,,,,,,0
5703,LkLaWooW,WBD Lake Lansing past Wood,LAKE LANSING RD & WOOD ST,42.760766,-84.524918,,,,,,0
5704,LkLaChaW,WBD Lake Lansing before Chamberlain,LAKE LANSING RD & WOOD ST,42.760748,-84.528425,,,,,,0
5705,LkLaComW,WBD Lake Lansing before Commonwealt,LAKE LANSING RD & COMMONWEALTH AVE,42.757892,-84.534815,,,,,,0
5706,LkLaNYoW,WBD Lake Lansing past New York,LAKE LANSING RD & NEW YORK AVE,42.756104,-84.537643,,,,,,0
5712,EdgeCelW,WBD Edgewood past Celebration Dr.,EDGEWOOD BLVD & CEDAR CONN/CEDAR RAMP,42.661897,-84.552141,,,,,,0
5713,ColDuncN,NBD Collins past Dunckel,Collins Rd & Dunckel Rd,42.69001,-84.49867,,,,,,0
5716,HolmExpW,WBD Holmes past Express Dr.,W HOLMES RD & SIMKEN DR,42.697612,-84.574636,,,,,,0
5718,KalDeHaW,WBD Kalamazoo at Dem Hall Dr,E KALAMAZOO ST & FARM LN,42.730061,-84.48939,,,,,,0
5719,VctrBedW,WBD Victor before Bedford,2900 VICTOR AVE & BEDFORD ST,42.705327,-84.589209,,,,,,0
5720,LacBoiN2,NBD LacDuMont past Bois Isle,2016 LAC DU MONT DR,42.749918,-84.423783,,,,,,0
5723,EdgeCelE,EBD Edgewood before Celebration Dr,EDGEWOOD BLVD & W EDGEWOOD/E EDGEWOOD TURN,42.661937,-84.551213,,,,,,0
5724,PaCaPiTW,WBD Patient Care before Pine Tree,PATIENT CARE DR & PINE TREE RD,42.677439,-84.502752,,,,,,0
5730,CentMar2,EBD Central Park before Marsh,CENTRAL PARK DR & NEW YORK AVE,42.727833,-84.416223,,,,,,0
5731,NortMasW,WBD North past Massachusetts,E NORTH ST & NEW YORK AVE,42.75179,-84.536417,,,,,,0
5736,LkLaCo2E,EBD Lake Lansing before Chamberlain,LAKE LANSING RD,42.759922,-84.531298,,,,,,0
5737,LkLaCh2W,WBD Lake Lansing past Chamberlain,LAKE LANSING RD,42.76006,-84.531327,,,,,,0
5740,SagCedaE,EBD Saginaw before Cedar,E SAGINAW ST & N CEDAR ST,42.740851,-84.548332,,,,,,0
5741,MainBriE,EBD Main past Bridge St,W MAIN ST & BRIDGE ST,42.724162,-84.585387,,,,,,0
5742,CaCiAir2,NBD Cap. City Blvd @ Peckham,CAPITOL CITY BLVD & N GRAND RIVER AVE,42.768931,-84.588883,,,,,,0
5743,AbbABPLN,NBD Abbot past Abbot Place,ABBOT RD & ABBOT PLACE APT,42.763317,-84.483575,,,,,,0
5744,AbbAQCEN,NBD Abbot at EL Aquatic Center,ABBOT RD & S CHANDLER RD,42.767576,-84.483519,,,,,,0
5745,TrCoBJE1,EBD Trappers Cove past Dunckel 1,TRAPPERS COVE TRL,42.687414,-84.512535,,,,,,0
5746,TrCoBJE2,EBD Trappers Cove past Dunckel 2,TRAPPERS COVE TRL,42.687429,-84.50895,,,,,,0
5747,TrCoBJE3,EBD Trappers Cove past Dunckel 3,TRAPPERS COVE TRL & BEAU JARDIN DR,42.686702,-84.505808,,,,,,0
5748,TrCoBJE4,EBD Trappers Cove past Dunckel 4,TRAPPERS COVE TRL & BEAU JARDIN DR,42.685055,-84.504878,,,,,,0
5749,TrCoBJE5,WBD BeauJardin past Trappers Cove,BEAU JARDIN DR & TRAPPERS COVE TRL,42.684528,-84.505762,,,,,,0
5750,TrCoBJE6,SBD Belle Chase past Beau Jardin,BELLE CHASE BLVD & BEAU JARDIN DR,42.684127,-84.508562,,,,,,0
5751,ShiaCheE,EBD Shiawassee past Chestnut,W SHIAWASSEE ST & N CHESTNUT ST,42.737239,-84.558002,,,,,,0
5752,ShiaSeyE,EBD Shiawassee past Seymour,W SHIAWASSEE ST & N CAPITOL AVE,42.737221,-84.554968,,,,,,0
5753,SagiPinE,EBD Saginaw past Pine,W SAGINAW ST & N CHESTNUT ST,42.740891,-84.559622,,,,,,0
5754,SagiWalE,EBD Saginaw past Walnut,W SAGINAW ST & N WALNUT ST,42.74089,-84.556563,,,,,,0
5757,DeerHerS,SBD Deerfield past Herrick,S DEERFIELD AVE & W HOLMES RD,42.699681,-84.591997,,,,,,0
5759,MtHoGrHE,EBD Mt Hope @ Grand Haven Apts,W MOUNT HOPE AVE,42.712065,-84.593519,,,,,,0
5760,FarmAudN,NBD Farm past Auditorium,FARM LN & AUDITORIUM RD,42.729603,-84.477746,,,,,,0
5761,FarmDorN,NBD Farm before Dormitory,E CIRCLE DR & AUDITORIUM RD,42.730659,-84.476799,,,,,,0
5762,BurchAbE,EBD Burcham past Abbot,BURCHAM DR & ABBOT RD,42.74065,-84.483256,,,,,,0
5763,AbbArGlS,SBD Abbot past Arbor Glen,ABBOT RD & SWART ST,42.760319,-84.483789,,,,,,0
5766,AlbGrovW,WBD Albert past Grove,ALBERT AVE & GROVE ST,42.735978,-84.482477,,,,,,0
5772,WashMicS,SBD Washington past Michigan,S WASHINGTON SQ & E ALLEGAN ST,42.733354,-84.552329,,,,,,0
5773,WashAllS,SBD Washington past Allegan,S WASHINGTON SQ & W ALLEGAN ST,42.732021,-84.55233,,,,,,0
5782,BurButtW,WBD Burcham past Butterfield,BURCHAM DR,42.740722,-84.47328,,,,,,0
5786,PerkLesE,EBD Perkins before Leslie,PERKINS ST & SHEPARD ST,42.721047,-84.525255,,,,,,0
5787,PerkLesW,WBD Perkins past Leslie,PERKINS ST & SHEPARD ST,42.721155,-84.525243,,,,,,0
5795,EnOakPTW,WBD English Oak past Pinetree,ENGLISH OAK DR & PINE TREE RD,42.673038,-84.504354,,,,,,0
5796,EnOakSOW,WBD English Oak before Spanish Oak,ENGLISH OAK DR & PINE TREE RD,42.672969,-84.507643,,,,,,0
5797,DuncLegN,NBD Dunckel before Legacy (Trinity),DUNCKEL RD & PINE TREE RD,42.677993,-84.513614,,,,,,0
5798,LCCWest,LCCWest,CORNERSTONE DR & SANDERS RD,42.717734,-84.630129,,,,,,0
5801,GrRivNoE,EBD Grand River between Northwind D,E GRAND RIVER AVE & DAWN AVE,42.727182,-84.454314,,,,,,0
5804,EifHadHS,SBD Eifert past Haddon Hall,N EIFERT RD,42.62802,-84.543,,,,,,0
5805,KalaUViE,EBD Kalamazoo at U Vill entrance,E KALAMAZOO ST & UNIVERSITY VILLAGE ENTRANCE,42.728015,-84.499048,,,,,,0
5806,KalaUViW,WBD Kalamazoo past U Vill entrance,E KALAMAZOO ST & UNIVERSITY VILLAGE ENTRANCE,42.728153,-84.499343,,,,,,0
5807,HagCambS,SBD Hagadorn past Cambria,N HAGADORN RD & E SAGINAW ST,42.748899,-84.462404,,,,,,0
5808,HagCambN,NBD Hagadorn past Cambria,N HAGADORN RD & CAMBRIA DR,42.74957,-84.462235,,,,,,0
5810,WashElmS,SBD Washington past Elm,S WASHINGTON AVE & GROSS CT,42.721677,-84.552447,,,,,,0
5813,DobSashN,NBD Dobie at Sashabaw,DOBIE RD & SASHABAW DR,42.691039,-84.410315,,,,,,0
5815,PaCaPiTE,EBD Patient Care past PineTree,PATIENT CARE DR & PINE TREE RD,42.679748,-84.502798,,,,,,0
5816,Hol1MLKE,EBD Holmes before MLK,W HOLMES RD & S MARTIN LUTHER KING JR BLVD,42.697495,-84.568227,,,,,,0
5817,GrRivBuW,WBD Grand River before Burkley Rd,E GRAND RIVER AVE & BURKLEY RD,42.702396,-84.342482,,,,,,0
5818,GrRivBuE,EBD Grand River past Burkly,E GRAND RIVER AVE & BURKLEY RD,42.702406,-84.342801,,,,,,0
5823,VineHomE,EBD Vine past Homer,VINE ST & N HOMER ST,42.735972,-84.509233,,,,,,0
5824,MtHoFaiE,EBD Mt Hope before Fairlane,E MOUNT HOPE RD & HAWTHORNE LN,42.711746,-84.453732,,,,,,0
5825,LkLaBayW,WBD Lake Lansing past Bayonne,LAKE LANSING RD,42.754798,-84.419016,,,,,,0
5885,ClipVinN,NBD Clippert past Vine,N CLIPPERT ST & SELLERS AVE,42.736634,-84.508262,,,,,,0
5886,ClipSelS,SBD Clippert past Sellers,N CLIPPERT ST & SELLERS AVE,42.736571,-84.508409,,,,,,0
5894,MLKBarnS,SBD MLK past Barnes,S MARTIN LUTHER KING JR BLVD & W BARNES AVE,42.714693,-84.567876,,,,,,0
5895,MLKBarnN,NBD MLK past Barnes,S MARTIN LUTHER KING JR BLVD & W BARNES AVE,42.715202,-84.567336,,,,,,0
5907,MLKGordN,NBD MLK past Gordon,,42.709011,-84.567412,,,,,,0
5910,MeiLLBCW,Meijer Lake Lansing Boarding center (west side),MEIJER LAKE LANSING LOT,42.762043,-84.501999,,,,,,0
5911,HagHannN,NBD Hagadorn past Hannah Blvd,S HAGADORN RD & CANADIAN NATIONAL RAILWAY,42.719754,-84.46203,,,,,,0
5913,HagServS,SBD Hagadorn past Service,HAGADORN RD & S HAGADORN RD,42.718698,-84.462437,,,,,,0
5917,MeiOke2,Rt 22 WBD at Meijer,OKEMOS MEIJER LOT,42.71997,-84.424644,,,,,,0
5918,HunChanW,WBD Hunsaker past Chandler,HUNSAKER ST,42.775926,-84.484231,,,,,,0
5919,MtHPlG1E,EBD Mt Hope before Pleasant Grove,W MOUNT HOPE AVE & PLEASANT GROVE RD,42.712037,-84.583719,,,,,,0
5920,MtHPlG2E,EBD Mt Hope past Pleasant Grove,W MOUNT HOPE AVE & BOSTON BLVD,42.712028,-84.580109,,,,,,0
5926,HarrSerN,NBD Harrison past Service,S HARRISON RD & S SERVICE RD,42.718807,-84.493608,,,,,,0
5927,MeSPeBCE,Meijer S Penn BC (new) East Side,MEIJER PENNSYLVANIA LOT,42.667584,-84.541804,,,,,,0
5928,MeSPeBCW,Meijer S Penn BC (new) West Side,MEIJER PENNSYLVANIA LOT,42.668228,-84.542086,,,,,,0
5929,StJoWavW,WBD St Joseph past Waverly,E ST JOE HWY & S DIBBLE ST,42.726677,-84.605924,,,,,,0
5930,StJoeSnW,WBD St. Joe Before Snow,E ST JOE HWY & KIDS CT,42.726702,-84.620062,,,,,,0
5931,StJoeSnE,EBD St Joseph past Snow,E ST JOE HWY & KIDS CT,42.726594,-84.620172,,,,,,0
5941,ColChanW,WBD Coleman past Chandler,COLEMAN RD & COLLINS RD,42.771094,-84.484275,,,,,,0
5942,ColHunsW,WBD Coleman past Hunsaker,COLEMAN RD & COLLINS RD,42.773074,-84.487001,,,,,,0
5943,Block36W,WBD Coleman at Block 36,COLEMAN RD,42.773177,-84.492876,,,,,,0
5944,BeaParkW,WBD Coleman at Beaumont Park,COLEMAN RD & BEAUMONT PARK DR,42.773244,-84.498616,,,,,,0
5945,CooEarlS,SBD Coolidge past Earl,COOLIDGE RD & TURF LN,42.771163,-84.503215,,,,,,0
5946,CooAbbeS,SBD Coolidge past Abbey,COOLIDGE RD & MEIJER LAKE LANSING LOT,42.764406,-84.503335,,,,,,0
5947,CooAbbeN,NBD Coolidge past Abbey,COOLIDGE RD & ABBEY RD,42.764997,-84.503175,,,,,,0
5948,CooTurfN,NBD Coolidge past Turf,COOLIDGE RD & EARL AVE,42.770133,-84.503094,,,,,,0
5949,ColBeauE,EBD Coleman at Beaumont,COLEMAN RD & WHARTON ST,42.773127,-84.498014,,,,,,0
5950,TranJolN,NBD Tranter past Jolly,TRANTER ST,42.683185,-84.534549,,,,,,0
5952,Ramp1-1,Ramp 1 Bay 1,RAMP 1,42.725601,-84.475468,,,,,,0
5953,Ramp1-2,Ramp 1 Bay 2,RAMP 1,42.725601,-84.475468,,,,,,0
5954,Ramp1-3,Ramp 1 Bay 3,RAMP 1,42.725601,-84.475468,,,,,,0
5955,Ramp1-4,Ramp 1 Bay 4,RAMP 1,42.725601,-84.475468,,,,,,0
5956,Ramp1-5,Ramp 1 Bay 5,RAMP 1,42.725601,-84.475468,,,,,,0
5982,ColBl36E,EBD Coleman at Block 36,COLEMAN RD,42.773069,-84.492507,,,,,,0
5983,StJoeChE,EBD St Joseph past Chesley,E ST JOE HWY & CHESLEY ST,42.726578,-84.612778,,,,,,0
5984,StJoeChW,WBD St Joseph before Chesley,E ST JOE HWY & CHESLEY ST,42.726685,-84.612901,,,,,,0
5985,ColClubW,WBD Coleman at the Club,COLEMAN RD & CHESLEY ST,42.772384,-84.485908,,,,,,0
5986,ColClubE,EBD Coleman at the Club,COLEMAN RD & CHESLEY ST,42.772124,-84.485896,,,,,,0
5987,AbBLLanN,NBD Abbot before Lake Lansing Rd,ABBOT RD & LAKE LANSING RD,42.758861,-84.483693,,,,,,0
5988,ColHamE,EBD Coleman past Hamlet,COLEMAN RD & HAMLET RD,42.773156,-84.499968,,,,,,0
5989,ColDunkS,SBD Collins before Dunkel,COLLINS RD & DUNKEL,42.690044,-84.498807,,,,,,0
5990,SnowAspS,SBD Snow Rd & Aspen,SNOW RD & W I 496,42.722299,-84.622922,,,,,,0
5991,CornSnoW,WBD Cornerstone past Snow,CORNERSTONE DR & W I 496,42.716473,-84.623914,,,,,,0
5992,SnowAspN,SBD Snow & Aspen,SNOW RD & ASPEN DR,42.722451,-84.622787,,,,,,0
5994,LkLaHakW,WBD Lake Lansing at Harkson,E LAKE LANSING RD & W LAKE LANSING RD,42.759125,-84.481471,,,,,,0
5996,BosMtHoS,Boston Blvd past Mount Hope,BOSTON BLVD,42.71124,-84.576105,,,,,,0
5997,GRivCedE,EBD Grand River after Cedar,E GRAND RIVER AVE & N CEDAR ST,42.747329,-84.545943,,,,,,0
5998,GRivCedW,WBD Grand River past Cedar,E GRAND RIVER AVE & CENTER ST,42.747491,-84.547467,,,,,,0
5999,GRivCasW,EBD Grand River after Case,E GRAND RIVER AVE & CASE ST,42.747506,-84.541594,,,,,,0
6003,JolWashW,WBD Jolly before Washington,,42.682631,-84.561936,,,,,,0
6004,GRivLarW,WBD Grand River past Larch,E GRAND RIVER AVE & N LARCH ST,42.74749,-84.545034,,,,,,0
6005,GRivCasE,EBD Grand River before Case,E GRAND RIVER AVE & CASE ST,42.747345,-84.541987,,,,,,0
6006,GRivTurn,WBD Grand River past Turner,E GRAND RIVER AVE & CASE ST,42.74751,-84.550563,,,,,,0
6007,SagWashE,EBD Saginaw before Washington,,42.740853,-84.552717,,,,,,0
6008,ChanColS,SBD Chandler past Coleman,S CHANDLER RD & ABBOT RD,42.769778,-84.483675,,,,,,0
